[{"lat": 47.7067, "lng": -104.1922, "year": 1979, "cls": "Class A", "city": "Bismarck", "state": "Montana"}, {"lat": 47.3704, "lng": -122.782, "year": 1979, "cls": "Class A", "city": "Olympia", "state": "Washington"}, {"lat": 33.3646, "lng": -82.2447, "year": 1979, "cls": "Class A", "city": "Augusta", "state": "Georgia"}, {"lat": 31.3927, "lng": -91.085, "year": 1979, "cls": "Class A", "city": "Baton Rouge", "state": "Mississippi"}, {"lat": 47.0547, "lng": -121.8211, "year": 1979, "cls": "Class B", "city": "Tacoma", "state": "Washington"}, {"lat": 39.0117, "lng": -86.5767, "year": 1979, "cls": "Class A", "city": "Indianapolis", "state": "Indiana"}, {"lat": 41.65, "lng": -123.85, "year": 1979, "cls": "Class A", "city": "Medford", "state": "California"}, {"lat": 45.3865, "lng": -87.9604, "year": 1979, "cls": "Class A", "city": "Green Bay", "state": "Wisconsin"}, {"lat": 42.3125, "lng": -84.7378, "year": 1979, "cls": "Class A", "city": "Lansing", "state": "Michigan"}, {"lat": 45.5145, "lng": -122.3352, "year": 1979, "cls": "Class A", "city": "Portland", "state": "Oregon"}, {"lat": 33.8976, "lng": -82.4975, "year": 1979, "cls": "Class B", "city": "Augusta", "state": "Georgia"}, {"lat": 32.4019, "lng": -90.1937, "year": 1979, "cls": "Class A", "city": "Jackson", "state": "Mississippi"}, {"lat": 42.4356, "lng": -122.2328, "year": 1979, "cls": "Class B", "city": "Medford", "state": "Oregon"}, {"lat": 43.153, "lng": -85.5995, "year": 1979, "cls": "Class B", "city": "Grand Rapids", "state": "Michigan"}, {"lat": 36.1894, "lng": -118.1729, "year": 1979, "cls": "Class B", "city": "Visalia", "state": "California"}, {"lat": 29.1299, "lng": -82.5876, "year": 1979, "cls": "Class B", "city": "Gainesville", "state": "Florida"}, {"lat": 42.7661, "lng": -97.9757, "year": 1979, "cls": "Class A", "city": "Sioux Falls", "state": "Nebraska"}, {"lat": 33.8132, "lng": -86.7891, "year": 1979, "cls": "Class A", "city": "Birmingham", "state": "Alabama"}, {"lat": 30.7113, "lng": -87.9183, "year": 1979, "cls": "Class A", "city": "Mobile", "state": "Alabama"}, {"lat": 36.4168, "lng": -94.7823, "year": 1979, "cls": "Class A", "city": "Springdale", "state": "Oklahoma"}, {"lat": 32.15, "lng": -97.5, "year": 1979, "cls": "Class A", "city": "Fort Worth", "state": "Texas"}, {"lat": 37.91, "lng": -88.929, "year": 1979, "cls": "Class A", "city": "Cape Girardeau", "state": "Illinois"}, {"lat": 31.2371, "lng": -94.451, "year": 1979, "cls": "Class A", "city": "Beaumont", "state": "Texas"}, {"lat": 41.0695, "lng": -74.1556, "year": 1979, "cls": "Class B", "city": "Paterson", "state": "New Jersey"}, {"lat": 45.2285, "lng": -89.6752, "year": 1979, "cls": "Class A", "city": "Wausau", "state": "Wisconsin"}, {"lat": 37.445, "lng": -80.17, "year": 1979, "cls": "Class A", "city": "Winston-Salem", "state": "West Virginia"}, {"lat": 45.0205, "lng": -87.7361, "year": 1979, "cls": "Class A", "city": "Green Bay", "state": "Wisconsin"}, {"lat": 36.0089, "lng": -77.9052, "year": 1979, "cls": "Class A", "city": "Raleigh", "state": "North Carolina"}, {"lat": 46.314, "lng": -124.0273, "year": 1979, "cls": "Class B", "city": "Olympia", "state": "Washington"}, {"lat": 31.1458, "lng": -93.2512, "year": 1979, "cls": "Class A", "city": "Alexandria", "state": "Louisiana"}, {"lat": 43.4245, "lng": -86.353, "year": 1979, "cls": "Class B", "city": "Grand Rapids", "state": "Michigan"}, {"lat": 42.127, "lng": -70.9756, "year": 1979, "cls": "Class B", "city": "Brockton", "state": "Massachusetts"}, {"lat": 41.2333, "lng": -96.4267, "year": 1979, "cls": "Class B", "city": "Omaha", "state": "Nebraska"}, {"lat": 32.4197, "lng": -93.4386, "year": 1979, "cls": "Class B", "city": "Shreveport", "state": "Louisiana"}, {"lat": 34.1738, "lng": -91.0727, "year": 1979, "cls": "Class A", "city": "Pine Bluff", "state": "Arkansas"}, {"lat": 39.0465, "lng": -105.2146, "year": 1979, "cls": "Class A", "city": "Colorado Springs", "state": "Colorado"}, {"lat": 45.9151, "lng": -84.8752, "year": 1979, "cls": "Class A", "city": "Grand Rapids", "state": "Michigan"}, {"lat": 45.5051, "lng": -89.1642, "year": 1979, "cls": "Class A", "city": "Wausau", "state": "Wisconsin"}, {"lat": 39.4822, "lng": -82.3267, "year": 1979, "cls": "Class A", "city": "Columbus", "state": "Ohio"}, {"lat": 32.68, "lng": -94.3, "year": 1979, "cls": "Class A", "city": "Longview", "state": "Texas"}, {"lat": 43.9311, "lng": -124.1214, "year": 1978, "cls": "Class A", "city": "Eugene", "state": "Oregon"}, {"lat": 37.4874, "lng": -93.8659, "year": 1978, "cls": "Class B", "city": "Springfield", "state": "Missouri"}, {"lat": 40.3404, "lng": -80.6421, "year": 1978, "cls": "Class B", "city": "Wheeling", "state": "Ohio"}, {"lat": 39.5212, "lng": -80.3788, "year": 1978, "cls": "Class A", "city": "Morgantown", "state": "West Virginia"}, {"lat": 41.5938, "lng": -93.974, "year": 1978, "cls": "Class A", "city": "Des Moines", "state": "Iowa"}, {"lat": 37.7755, "lng": -85.6719, "year": 1978, "cls": "Class B", "city": "Louisville", "state": "Kentucky"}, {"lat": 46.3564, "lng": -123.6081, "year": 1978, "cls": "Class A", "city": "Olympia", "state": "Washington"}, {"lat": 48.5258, "lng": -96.2843, "year": 1978, "cls": "Class B", "city": "Grand Forks", "state": "Minnesota"}, {"lat": 39.5474, "lng": -81.391, "year": 1978, "cls": "Class A", "city": "Wheeling", "state": "Ohio"}, {"lat": 33.3792, "lng": -94.1161, "year": 1978, "cls": "Class B", "city": "Texarkana", "state": "Texas"}, {"lat": 38.7774, "lng": -90.012, "year": 1978, "cls": "Class A", "city": "St. Louis", "state": "Illinois"}, {"lat": 45.1227, "lng": -111.563, "year": 1978, "cls": "Class B", "city": "Bozeman", "state": "Montana"}, {"lat": 40.5541, "lng": -106.7084, "year": 1978, "cls": "Class B", "city": "Laramie", "state": "Colorado"}, {"lat": 41.2137, "lng": -80.2656, "year": 1978, "cls": "Class A", "city": "Youngstown", "state": "Pennsylvania"}, {"lat": 31.3478, "lng": -86.5453, "year": 1978, "cls": "Class A", "city": "Montgomery", "state": "Alabama"}, {"lat": 41.6359, "lng": -111.6149, "year": 1978, "cls": "Class B", "city": "Logan", "state": "Utah"}, {"lat": 42.568, "lng": -123.3322, "year": 1978, "cls": "Class B", "city": "Medford", "state": "Oregon"}, {"lat": 40.0476, "lng": -80.2565, "year": 1978, "cls": "Class B", "city": "Wheeling", "state": "Pennsylvania"}, {"lat": 40.6356, "lng": -122.7325, "year": 1978, "cls": "Class A", "city": "Redding", "state": "California"}, {"lat": 41.093, "lng": -81.8239, "year": 1978, "cls": "Class B", "city": "Akron", "state": "Ohio"}, {"lat": 38.4415, "lng": -85.0016, "year": 1978, "cls": "Class A", "city": "Lexington", "state": "Kentucky"}, {"lat": 38.2395, "lng": -119.8792, "year": 1978, "cls": "Class B", "city": "Carson City", "state": "California"}, {"lat": 42.8674, "lng": -94.356, "year": 1978, "cls": "Class A", "city": "Mankato", "state": "Iowa"}, {"lat": 41.1076, "lng": -81.4311, "year": 1978, "cls": "Class A", "city": "Akron", "state": "Ohio"}, {"lat": 39.6415, "lng": -84.4851, "year": 1978, "cls": "Class B", "city": "Hamilton", "state": "Ohio"}, {"lat": 46.7815, "lng": -93.8189, "year": 1978, "cls": "Class B", "city": "St. Cloud", "state": "Minnesota"}, {"lat": 45.3894, "lng": -122.4163, "year": 1978, "cls": "Class A", "city": "Portland", "state": "Oregon"}, {"lat": 36.3113, "lng": -81.3089, "year": 1978, "cls": "Class A", "city": "Winston-Salem", "state": "North Carolina"}, {"lat": 40.7445, "lng": -81.0758, "year": 1978, "cls": "Class A", "city": "Canton", "state": "Ohio"}, {"lat": 40.9701, "lng": -78.4231, "year": 1978, "cls": "Class A", "city": "Altoona", "state": "Pennsylvania"}, {"lat": 37.757, "lng": -109.3125, "year": 1978, "cls": "Class B", "city": "Farmington", "state": "Utah"}, {"lat": 33.5003, "lng": -88.4034, "year": 1978, "cls": "Class A", "city": "Tupelo", "state": "Mississippi"}, {"lat": 46.6348, "lng": -122.7746, "year": 1978, "cls": "Class A", "city": "Olympia", "state": "Washington"}, {"lat": 40.7343, "lng": -81.1562, "year": 1978, "cls": "Class A", "city": "Canton", "state": "Ohio"}, {"lat": 37.7269, "lng": -76.6658, "year": 1978, "cls": "Class A", "city": "Newport News", "state": "Virginia"}, {"lat": 39.6575, "lng": -89.5698, "year": 1978, "cls": "Class B", "city": "Springfield", "state": "Illinois"}, {"lat": 38.1975, "lng": -119.9811, "year": 1978, "cls": "Class A", "city": "Carson City", "state": "California"}, {"lat": 40.3638, "lng": -78.8779, "year": 1978, "cls": "Class A", "city": "Altoona", "state": "Pennsylvania"}, {"lat": 41.432, "lng": -71.6518, "year": 1978, "cls": "Class A", "city": "Providence", "state": "Rhode Island"}, {"lat": 38.7082, "lng": -77.1787, "year": 1978, "cls": "Class B", "city": "Alexandria", "state": "Virginia"}, {"lat": 47.5958, "lng": -123.1208, "year": 1978, "cls": "Class B", "city": "Olympia", "state": "Washington"}, {"lat": 47.0577, "lng": -122.4643, "year": 1978, "cls": "Class A", "city": "Tacoma", "state": "Washington"}, {"lat": 31.3799, "lng": -92.3783, "year": 1978, "cls": "Class A", "city": "Alexandria", "state": "Louisiana"}, {"lat": 41.871, "lng": -84.2995, "year": 1978, "cls": "Class A", "city": "Ann Arbor", "state": "Michigan"}, {"lat": 37.5295, "lng": -97.6083, "year": 1978, "cls": "Class A", "city": "Wichita", "state": "Kansas"}, {"lat": 39.072, "lng": -95.747, "year": 1978, "cls": "Class A", "city": "Topeka", "state": "Kansas"}, {"lat": 39.4088, "lng": -81.7317, "year": 1978, "cls": "Class A", "city": "Charleston", "state": "Ohio"}, {"lat": 40.6798, "lng": -81.5108, "year": 1978, "cls": "Class A", "city": "Canton", "state": "Ohio"}, {"lat": 42.163, "lng": -123.6481, "year": 1978, "cls": "Class B", "city": "Medford", "state": "Oregon"}, {"lat": 42.685, "lng": -84.0403, "year": 1978, "cls": "Class A", "city": "Flint", "state": "Michigan"}, {"lat": 32.4125, "lng": -94.8181, "year": 1978, "cls": "Class B", "city": "Longview", "state": "Texas"}, {"lat": 43.7827, "lng": -123.9599, "year": 1978, "cls": "Class B", "city": "Eugene", "state": "Oregon"}, {"lat": 47.4259, "lng": -123.8763, "year": 1978, "cls": "Class A", "city": "Olympia", "state": "Washington"}, {"lat": 40.4634, "lng": -82.8258, "year": 1978, "cls": "Class A", "city": "Mansfield", "state": "Ohio"}, {"lat": 36.2645, "lng": -89.254, "year": 1978, "cls": "Class A", "city": "Paducah", "state": "Tennessee"}, {"lat": 34.6423, "lng": -83.4192, "year": 1978, "cls": "Class A", "city": "Athens", "state": "Georgia"}, {"lat": 33.245, "lng": -81.359, "year": 1978, "cls": "Class A", "city": "Augusta", "state": "South Carolina"}, {"lat": 32.2462, "lng": -84.0893, "year": 1978, "cls": "Class A", "city": "Warner Robins", "state": "Georgia"}, {"lat": 39.7859, "lng": -82.2916, "year": 1978, "cls": "Class A", "city": "Columbus", "state": "Ohio"}, {"lat": 39.2128, "lng": -120.8908, "year": 1978, "cls": "Class A", "city": "Roseville", "state": "California"}, {"lat": 44.4982, "lng": -109.6824, "year": 1978, "cls": "Class A", "city": "Billings", "state": "Wyoming"}, {"lat": 33.6655, "lng": -93.568, "year": 1978, "cls": "Class A", "city": "Texarkana", "state": "Arkansas"}, {"lat": 39.115, "lng": -89.952, "year": 1978, "cls": "Class B", "city": "St. Louis", "state": "Illinois"}, {"lat": 47.0945, "lng": -122.0874, "year": 1978, "cls": "Class B", "city": "Tacoma", "state": "Washington"}, {"lat": 45.6278, "lng": -122.0194, "year": 1978, "cls": "Class A", "city": "Portland", "state": "Washington"}, {"lat": 37.6848, "lng": -89.4916, "year": 1978, "cls": "Class A", "city": "Cape Girardeau", "state": "Illinois"}, {"lat": 34.9286, "lng": -87.1105, "year": 1978, "cls": "Class A", "city": "Decatur", "state": "Alabama"}, {"lat": 37.7805, "lng": -89.4573, "year": 1978, "cls": "Class B", "city": "Cape Girardeau", "state": "Illinois"}, {"lat": 38.9022, "lng": -121.0803, "year": 1978, "cls": "Class B", "city": "Roseville", "state": "California"}, {"lat": 37.0504, "lng": -95.0802, "year": 1978, "cls": "Class A", "city": "Joplin", "state": "Kansas"}, {"lat": 46.2262, "lng": -124.0133, "year": 1978, "cls": "Class A", "city": "Olympia", "state": "Oregon"}, {"lat": 41.4444, "lng": -81.2063, "year": 1978, "cls": "Class A", "city": "Warren", "state": "Ohio"}, {"lat": 40.4764, "lng": -82.8026, "year": 1978, "cls": "Class A", "city": "Mansfield", "state": "Ohio"}, {"lat": 27.7752, "lng": -81.9755, "year": 1978, "cls": "Class A", "city": "Tampa", "state": "Florida"}, {"lat": 37.7274, "lng": -88.9487, "year": 1977, "cls": "Class B", "city": "Cape Girardeau", "state": "Illinois"}, {"lat": 38.1975, "lng": -119.9811, "year": 1977, "cls": "Class B", "city": "Carson City", "state": "California"}, {"lat": 48.1278, "lng": -121.7692, "year": 1977, "cls": "Class A", "city": "Seattle", "state": "Washington"}, {"lat": 42.6688, "lng": -71.9023, "year": 1977, "cls": "Class A", "city": "Worcester", "state": "Massachusetts"}, {"lat": 41.7313, "lng": -70.4879, "year": 1977, "cls": "Class B", "city": "New Bedford", "state": "Massachusetts"}, {"lat": 37.192, "lng": -95.7455, "year": 1977, "cls": "Class A", "city": "Tulsa", "state": "Kansas"}, {"lat": 32.8057, "lng": -92.409, "year": 1977, "cls": "Class A", "city": "Monroe", "state": "Louisiana"}, {"lat": 29.1951, "lng": -81.9087, "year": 1977, "cls": "Class A", "city": "Gainesville", "state": "Florida"}, {"lat": 25.5166, "lng": -80.4369, "year": 1977, "cls": "Class A", "city": "Hialeah", "state": "Florida"}, {"lat": 38.7773, "lng": -83.1818, "year": 1977, "cls": "Class B", "city": "Huntington", "state": "Ohio"}, {"lat": 40.8255, "lng": -88.502, "year": 1977, "cls": "Class B", "city": "Bloomington", "state": "Illinois"}, {"lat": 28.0954, "lng": -82.7492, "year": 1977, "cls": "Class A", "city": "Clearwater", "state": "Florida"}, {"lat": 41.4314, "lng": -111.4988, "year": 1977, "cls": "Class A", "city": "Logan", "state": "Utah"}, {"lat": 41.9183, "lng": -80.5418, "year": 1977, "cls": "Class A", "city": "Erie", "state": "Pennsylvania"}, {"lat": 47.7214, "lng": -124.3985, "year": 1977, "cls": "Class A", "city": "Olympia", "state": "Washington"}, {"lat": 29.0599, "lng": -82.0584, "year": 1977, "cls": "Class A", "city": "Gainesville", "state": "Florida"}, {"lat": 46.9858, "lng": -122.6997, "year": 1977, "cls": "Class B", "city": "Olympia", "state": "Washington"}, {"lat": 38.1975, "lng": -119.9811, "year": 1977, "cls": "Class B", "city": "Carson City", "state": "California"}, {"lat": 32.375, "lng": -98.68, "year": 1977, "cls": "Class B", "city": "Abilene", "state": "Texas"}, {"lat": 38.7478, "lng": -90.1455, "year": 1977, "cls": "Class B", "city": "St. Louis", "state": "Illinois"}, {"lat": 36.1979, "lng": -91.1125, "year": 1977, "cls": "Class A", "city": "Jonesboro", "state": "Arkansas"}, {"lat": 43.5961, "lng": -84.4272, "year": 1977, "cls": "Class A", "city": "Lansing", "state": "Michigan"}, {"lat": 46.693, "lng": -92.4998, "year": 1977, "cls": "Class B", "city": "Duluth", "state": "Minnesota"}, {"lat": 42.9074, "lng": -94.3841, "year": 1977, "cls": "Class B", "city": "Mankato", "state": "Iowa"}, {"lat": 37.1143, "lng": -93.7151, "year": 1977, "cls": "Class A", "city": "Springfield", "state": "Missouri"}, {"lat": 48.8178, "lng": -122.1656, "year": 1977, "cls": "Class A", "city": "Bellingham", "state": "Washington"}, {"lat": 40.9744, "lng": -111.8189, "year": 1977, "cls": "Class B", "city": "Salt Lake City", "state": "Utah"}, {"lat": 46.7647, "lng": -111.8861, "year": 1977, "cls": "Class A", "city": "Helena", "state": "Montana"}, {"lat": 31.1161, "lng": -98.055, "year": 1977, "cls": "Class A", "city": "Killeen", "state": "Texas"}, {"lat": 37.8597, "lng": -91.432, "year": 1977, "cls": "Class A", "city": "Jefferson City", "state": "Missouri"}, {"lat": 35.9196, "lng": -80.6282, "year": 1977, "cls": "Class A", "city": "Winston-Salem", "state": "North Carolina"}, {"lat": 47.6181, "lng": -121.3114, "year": 1977, "cls": "Class A", "city": "Seattle", "state": "Washington"}, {"lat": 43.1722, "lng": -92.7658, "year": 1977, "cls": "Class A", "city": "Waterloo", "state": "Iowa"}, {"lat": 40.8875, "lng": -122.3775, "year": 1977, "cls": "Class A", "city": "Redding", "state": "California"}, {"lat": 31.3006, "lng": -84.0225, "year": 1977, "cls": "Class B", "city": "Albany", "state": "Georgia"}, {"lat": 46.803, "lng": -122.4133, "year": 1977, "cls": "Class A", "city": "Tacoma", "state": "Washington"}, {"lat": 35.0028, "lng": -95.3411, "year": 1977, "cls": "Class B", "city": "Fort Smith", "state": "Oklahoma"}, {"lat": 44.8623, "lng": -122.2728, "year": 1977, "cls": "Class B", "city": "Portland", "state": "Oregon"}, {"lat": 31.1375, "lng": -92.4976, "year": 1977, "cls": "Class A", "city": "Alexandria", "state": "Louisiana"}, {"lat": 46.9769, "lng": -113.8381, "year": 1977, "cls": "Class A", "city": "Missoula", "state": "Montana"}, {"lat": 41.135, "lng": -74.8032, "year": 1977, "cls": "Class A", "city": "Paterson", "state": "New Jersey"}, {"lat": 38.826, "lng": -105.1146, "year": 1977, "cls": "Class A", "city": "Colorado Springs", "state": "Colorado"}, {"lat": 43.6744, "lng": -123.2675, "year": 1977, "cls": "Class B", "city": "Eugene", "state": "Oregon"}, {"lat": 37.3781, "lng": -83.2556, "year": 1977, "cls": "Class A", "city": "Huntington", "state": "Kentucky"}, {"lat": 41.3192, "lng": -123.1778, "year": 1977, "cls": "Class B", "city": "Medford", "state": "California"}, {"lat": 38.4586, "lng": -120.0397, "year": 1977, "cls": "Class B", "city": "Carson City", "state": "California"}, {"lat": 32.85, "lng": -98.375, "year": 1977, "cls": "Class B", "city": "Fort Worth", "state": "Texas"}, {"lat": 39.457, "lng": -85.5481, "year": 1977, "cls": "Class A", "city": "Indianapolis", "state": "Indiana"}, {"lat": 40.1848, "lng": -74.7226, "year": 1977, "cls": "Class A", "city": "Trenton", "state": "New Jersey"}, {"lat": 40.3861, "lng": -82.6988, "year": 1977, "cls": "Class A", "city": "Mansfield", "state": "Ohio"}, {"lat": 47.4644, "lng": -120.6705, "year": 1977, "cls": "Class B", "city": "Yakima", "state": "Washington"}, {"lat": 34.7991, "lng": -77.1051, "year": 1977, "cls": "Class B", "city": "Wilmington", "state": "North Carolina"}, {"lat": 39.7004, "lng": -84.6257, "year": 1977, "cls": "Class A", "city": "Hamilton", "state": "Ohio"}, {"lat": 41.93, "lng": -84.3539, "year": 1977, "cls": "Class A", "city": "Ann Arbor", "state": "Michigan"}, {"lat": 44.1557, "lng": -121.9531, "year": 1977, "cls": "Class B", "city": "Bend", "state": "Oregon"}, {"lat": 32.3372, "lng": -88.7481, "year": 1977, "cls": "Class A", "city": "Meridian", "state": "Mississippi"}, {"lat": 44.2386, "lng": -122.0505, "year": 1977, "cls": "Class A", "city": "Bend", "state": "Oregon"}, {"lat": 37.5656, "lng": -92.1426, "year": 1977, "cls": "Class B", "city": "Jefferson City", "state": "Missouri"}, {"lat": 39.8865, "lng": -81.2713, "year": 1977, "cls": "Class A", "city": "Wheeling", "state": "Ohio"}, {"lat": 37.8127, "lng": -119.8609, "year": 1977, "cls": "Class B", "city": "Clovis", "state": "California"}, {"lat": 41.3473, "lng": -84.5448, "year": 1977, "cls": "Class A", "city": "Fort Wayne", "state": "Ohio"}, {"lat": 32.84, "lng": -97.445, "year": 1976, "cls": "Class B", "city": "Fort Worth", "state": "Texas"}, {"lat": 36.134, "lng": -80.66, "year": 1976, "cls": "Class B", "city": "Winston-Salem", "state": "North Carolina"}, {"lat": 32.75, "lng": -97.75, "year": 1976, "cls": "Class B", "city": "Fort Worth", "state": "Texas"}, {"lat": 35.1864, "lng": -78.6361, "year": 1976, "cls": "Class A", "city": "Fayetteville", "state": "North Carolina"}, {"lat": 41.819, "lng": -80.5816, "year": 1976, "cls": "Class A", "city": "Erie", "state": "Ohio"}, {"lat": 38.738, "lng": -90.5325, "year": 1976, "cls": "Class A", "city": "St. Louis", "state": "Missouri"}, {"lat": 41.2145, "lng": -74.5995, "year": 1976, "cls": "Class B", "city": "Paterson", "state": "New Jersey"}, {"lat": 36.5587, "lng": -79.3608, "year": 1976, "cls": "Class A", "city": "Greensboro", "state": "Virginia"}, {"lat": 31.2484, "lng": -83.1365, "year": 1976, "cls": "Class A", "city": "Valdosta", "state": "Georgia"}, {"lat": 32.5812, "lng": -94.8696, "year": 1976, "cls": "Class A", "city": "Longview", "state": "Texas"}, {"lat": 39.7721, "lng": -89.4691, "year": 1976, "cls": "Class A", "city": "Springfield", "state": "Illinois"}, {"lat": 47.173, "lng": -122.2214, "year": 1976, "cls": "Class A", "city": "Tacoma", "state": "Washington"}, {"lat": 34.9234, "lng": -92.3052, "year": 1976, "cls": "Class A", "city": "Little Rock", "state": "Arkansas"}, {"lat": 41.0257, "lng": -81.7768, "year": 1976, "cls": "Class A", "city": "Akron", "state": "Ohio"}, {"lat": 42.1533, "lng": -123.5381, "year": 1976, "cls": "Class A", "city": "Medford", "state": "Oregon"}, {"lat": 39.1405, "lng": -91.419, "year": 1976, "cls": "Class B", "city": "Columbia", "state": "Missouri"}, {"lat": 30.9855, "lng": -85.6489, "year": 1976, "cls": "Class A", "city": "Dothan", "state": "Florida"}, {"lat": 40.7936, "lng": -81.3234, "year": 1976, "cls": "Class B", "city": "Canton", "state": "Ohio"}, {"lat": 41.3141, "lng": -81.3811, "year": 1976, "cls": "Class B", "city": "Akron", "state": "Ohio"}, {"lat": 40.5461, "lng": -81.2622, "year": 1976, "cls": "Class A", "city": "Canton", "state": "Ohio"}, {"lat": 37.8951, "lng": -84.1989, "year": 1976, "cls": "Class A", "city": "Lexington", "state": "Kentucky"}, {"lat": 38.655, "lng": -90.675, "year": 1976, "cls": "Class A", "city": "St. Louis", "state": "Missouri"}, {"lat": 40.2649, "lng": -83.0556, "year": 1976, "cls": "Class A", "city": "Columbus", "state": "Ohio"}, {"lat": 44.8633, "lng": -122.6397, "year": 1976, "cls": "Class A", "city": "Salem", "state": "Oregon"}, {"lat": 42.8663, "lng": -87.8402, "year": 1976, "cls": "Class B", "city": "Racine", "state": "Wisconsin"}, {"lat": 32.4576, "lng": -93.3663, "year": 1976, "cls": "Class B", "city": "Shreveport", "state": "Louisiana"}, {"lat": 45.5258, "lng": -91.8777, "year": 1976, "cls": "Class B", "city": "Eau Claire", "state": "Wisconsin"}, {"lat": 45.9957, "lng": -118.1253, "year": 1976, "cls": "Class A", "city": "Kennewick", "state": "Oregon"}, {"lat": 48.7806, "lng": -122.1483, "year": 1976, "cls": "Class B", "city": "Bellingham", "state": "Washington"}, {"lat": 45.5, "lng": -118.42, "year": 1976, "cls": "Class A", "city": "Kennewick", "state": "Oregon"}, {"lat": 34.3615, "lng": -83.8718, "year": 1976, "cls": "Class A", "city": "Athens", "state": "Georgia"}, {"lat": 43.55, "lng": -86.325, "year": 1976, "cls": "Class B", "city": "Grand Rapids", "state": "Michigan"}, {"lat": 44.1263, "lng": -121.3338, "year": 1976, "cls": "Class B", "city": "Bend", "state": "Oregon"}, {"lat": 37.718, "lng": -90.177, "year": 1976, "cls": "Class A", "city": "Cape Girardeau", "state": "Missouri"}, {"lat": 48.3636, "lng": -120.1211, "year": 1976, "cls": "Class A", "city": "Yakima", "state": "Washington"}, {"lat": 41.0217, "lng": -92.7398, "year": 1976, "cls": "Class B", "city": "Des Moines", "state": "Iowa"}, {"lat": 31.9812, "lng": -80.8949, "year": 1976, "cls": "Class B", "city": "Savannah", "state": "Georgia"}, {"lat": 38.98, "lng": -89.136, "year": 1975, "cls": "Class A", "city": "Decatur", "state": "Illinois"}, {"lat": 38.0481, "lng": -89.3043, "year": 1975, "cls": "Class B", "city": "Cape Girardeau", "state": "Illinois"}, {"lat": 37.641, "lng": -97.4029, "year": 1975, "cls": "Class A", "city": "Wichita", "state": "Kansas"}, {"lat": 43.425, "lng": -88.68, "year": 1975, "cls": "Class B", "city": "Waukesha", "state": "Wisconsin"}, {"lat": 30.2809, "lng": -81.8371, "year": 1975, "cls": "Class A", "city": "Jacksonville", "state": "Florida"}, {"lat": 40.995, "lng": -91.752, "year": 1975, "cls": "Class A", "city": "Iowa City", "state": "Iowa"}, {"lat": 42.0211, "lng": -123.2725, "year": 1975, "cls": "Class A", "city": "Medford", "state": "Oregon"}, {"lat": 38.8112, "lng": -92.5978, "year": 1975, "cls": "Class A", "city": "Columbia", "state": "Missouri"}, {"lat": 47.2416, "lng": -122.1833, "year": 1975, "cls": "Class A", "city": "Tacoma", "state": "Washington"}, {"lat": 47.1772, "lng": -122.1852, "year": 1975, "cls": "Class A", "city": "Tacoma", "state": "Washington"}, {"lat": 37.6839, "lng": -89.4882, "year": 1975, "cls": "Class B", "city": "Cape Girardeau", "state": "Illinois"}, {"lat": 40.2692, "lng": -88.1033, "year": 1975, "cls": "Class A", "city": "Champaign", "state": "Illinois"}, {"lat": 37.4421, "lng": -95.3548, "year": 1975, "cls": "Class B", "city": "Joplin", "state": "Kansas"}, {"lat": 46.7325, "lng": -94.6852, "year": 1975, "cls": "Class B", "city": "St. Cloud", "state": "Minnesota"}, {"lat": 34.47, "lng": -92.58, "year": 1975, "cls": "Class B", "city": "Little Rock", "state": "Arkansas"}, {"lat": 42.6425, "lng": -124.0255, "year": 1975, "cls": "Class B", "city": "Medford", "state": "Oregon"}, {"lat": 34.87, "lng": -92.12, "year": 1975, "cls": "Class A", "city": "Little Rock", "state": "Arkansas"}, {"lat": 43.9869, "lng": -91.3366, "year": 1975, "cls": "Class C", "city": "La Crosse", "state": "Wisconsin"}, {"lat": 41.7561, "lng": -124.2006, "year": 1975, "cls": "Class B", "city": "Medford", "state": "California"}, {"lat": 26.0645, "lng": -81.3615, "year": 1975, "cls": "Class B", "city": "Cape Coral", "state": "Florida"}, {"lat": 34.1288, "lng": -86.68, "year": 1975, "cls": "Class C", "city": "Decatur", "state": "Alabama"}, {"lat": 32.2714, "lng": -88.7496, "year": 1975, "cls": "Class A", "city": "Meridian", "state": "Mississippi"}, {"lat": 47.8498, "lng": -120.9591, "year": 1975, "cls": "Class B", "city": "Yakima", "state": "Washington"}, {"lat": 37.3817, "lng": -86.1358, "year": 1975, "cls": "Class B", "city": "Bowling Green", "state": "Kentucky"}, {"lat": 30.4078, "lng": -83.9677, "year": 1975, "cls": "Class A", "city": "Tallahassee", "state": "Florida"}, {"lat": 47.4067, "lng": -122.0375, "year": 1975, "cls": "Class B", "city": "Seattle", "state": "Washington"}, {"lat": 39.2694, "lng": -106.3833, "year": 1975, "cls": "Class A", "city": "Boulder", "state": "Colorado"}, {"lat": 40.5492, "lng": -85.6974, "year": 1975, "cls": "Class A", "city": "Kokomo", "state": "Indiana"}, {"lat": 36.6707, "lng": -93.6577, "year": 1975, "cls": "Class A", "city": "Springfield", "state": "Missouri"}, {"lat": 35.5131, "lng": -83.5582, "year": 1975, "cls": "Class B", "city": "Knoxville", "state": "North Carolina"}, {"lat": 30.6167, "lng": -95.5272, "year": 1975, "cls": "Class A", "city": "Bryan", "state": "Texas"}, {"lat": 37.8053, "lng": -81.1471, "year": 1975, "cls": "Class B", "city": "Charleston", "state": "West Virginia"}, {"lat": 42.375, "lng": -123.3833, "year": 1975, "cls": "Class A", "city": "Medford", "state": "Oregon"}, {"lat": 34.4502, "lng": -82.5679, "year": 1975, "cls": "Class A", "city": "Greenville", "state": "South Carolina"}, {"lat": 30.2464, "lng": -89.6111, "year": 1975, "cls": "Class A", "city": "Gulfport", "state": "Mississippi"}, {"lat": 33.7556, "lng": -96.53, "year": 1975, "cls": "Class B", "city": "McKinney", "state": "Texas"}, {"lat": 25.5449, "lng": -80.478, "year": 1975, "cls": "Class A", "city": "Hialeah", "state": "Florida"}, {"lat": 25.1993, "lng": -80.8738, "year": 1975, "cls": "Class B", "city": "Hialeah", "state": "Florida"}, {"lat": 40.0625, "lng": -123.2208, "year": 1975, "cls": "Class B", "city": "Redding", "state": "California"}, {"lat": 48.2117, "lng": -121.6769, "year": 1975, "cls": "Class A", "city": "Seattle", "state": "Washington"}, {"lat": 48.2688, "lng": -121.705, "year": 1975, "cls": "Class B", "city": "Bellingham", "state": "Washington"}, {"lat": 34.5247, "lng": -92.7035, "year": 1975, "cls": "Class B", "city": "Little Rock", "state": "Arkansas"}, {"lat": 26.2739, "lng": -80.1937, "year": 1975, "cls": "Class A", "city": "Coral Springs", "state": "Florida"}, {"lat": 29.2208, "lng": -81.8054, "year": 1974, "cls": "Class B", "city": "Gainesville", "state": "Florida"}, {"lat": 42.0288, "lng": -86.5153, "year": 1974, "cls": "Class B", "city": "South Bend", "state": "Michigan"}, {"lat": 42.2844, "lng": -124.2148, "year": 1974, "cls": "Class A", "city": "Medford", "state": "Oregon"}, {"lat": 38.3908, "lng": -95.6491, "year": 1974, "cls": "Class A", "city": "Topeka", "state": "Kansas"}, {"lat": 35.2681, "lng": -96.6022, "year": 1974, "cls": "Class A", "city": "Norman", "state": "Oklahoma"}, {"lat": 34.6603, "lng": -85.3917, "year": 1974, "cls": "Class B", "city": "Chattanooga", "state": "Georgia"}, {"lat": 47.7503, "lng": -122.1979, "year": 1974, "cls": "Class A", "city": "Seattle", "state": "Washington"}, {"lat": 45.5666, "lng": -121.7745, "year": 1974, "cls": "Class B", "city": "Portland", "state": "Oregon"}, {"lat": 40.1399, "lng": -96.7432, "year": 1974, "cls": "Class A", "city": "Lincoln", "state": "Nebraska"}, {"lat": 41.45, "lng": -71.5, "year": 1974, "cls": "Class A", "city": "Providence", "state": "Rhode Island"}, {"lat": 42.323, "lng": -85.0597, "year": 1974, "cls": "Class A", "city": "Lansing", "state": "Michigan"}, {"lat": 48.0783, "lng": -121.7363, "year": 1974, "cls": "Class B", "city": "Seattle", "state": "Washington"}, {"lat": 46.2404, "lng": -115.2088, "year": 1974, "cls": "Class B", "city": "Missoula", "state": "Idaho"}, {"lat": 28.0084, "lng": -81.9387, "year": 1974, "cls": "Class A", "city": "Tampa", "state": "Florida"}, {"lat": 39.6883, "lng": -123.4817, "year": 1974, "cls": "Class A", "city": "Redding", "state": "California"}, {"lat": 45.4051, "lng": -121.424, "year": 1974, "cls": "Class B", "city": "Portland", "state": "Oregon"}, {"lat": 45.3712, "lng": -118.5518, "year": 1974, "cls": "Class B", "city": "Kennewick", "state": "Oregon"}, {"lat": 29.4703, "lng": -81.1273, "year": 1974, "cls": "Class A", "city": "Orlando", "state": "Florida"}, {"lat": 35.665, "lng": -120.55, "year": 1974, "cls": "Class A", "city": "Fresno", "state": "California"}, {"lat": 42.2375, "lng": -83.67, "year": 1974, "cls": "Class B", "city": "Ann Arbor", "state": "Michigan"}, {"lat": 26.0509, "lng": -80.2946, "year": 1974, "cls": "Class A", "city": "Miramar", "state": "Florida"}, {"lat": 26.8366, "lng": -80.185, "year": 1974, "cls": "Class B", "city": "West Palm Beach", "state": "Florida"}, {"lat": 26.5931, "lng": -80.213, "year": 1974, "cls": "Class A", "city": "West Palm Beach", "state": "Florida"}, {"lat": 48.0261, "lng": -121.6406, "year": 1974, "cls": "Class B", "city": "Seattle", "state": "Washington"}, {"lat": 47.1856, "lng": -122.2917, "year": 1974, "cls": "Class A", "city": "Tacoma", "state": "Washington"}, {"lat": 34.0, "lng": -85.0, "year": 1974, "cls": "Class A", "city": "Atlanta", "state": "Georgia"}, {"lat": 45.9978, "lng": -116.9156, "year": 1974, "cls": "Class A", "city": "Coeur d'Alene", "state": "Idaho"}, {"lat": 41.41, "lng": -120.6781, "year": 1974, "cls": "Class A", "city": "Redding", "state": "California"}, {"lat": 39.1611, "lng": -80.2338, "year": 1974, "cls": "Class A", "city": "Morgantown", "state": "West Virginia"}, {"lat": 33.9701, "lng": -84.2018, "year": 1974, "cls": "Class B", "city": "Atlanta", "state": "Georgia"}, {"lat": 41.4896, "lng": -83.0698, "year": 1974, "cls": "Class B", "city": "Toledo", "state": "Ohio"}, {"lat": 33.72, "lng": -78.9211, "year": 1974, "cls": "Class A", "city": "Florence", "state": "South Carolina"}, {"lat": 36.0165, "lng": -88.7678, "year": 1974, "cls": "Class B", "city": "Paducah", "state": "Tennessee"}, {"lat": 35.5565, "lng": -121.2919, "year": 1974, "cls": "Class A", "city": "Salinas", "state": "California"}, {"lat": 42.225, "lng": -85.6885, "year": 1974, "cls": "Class A", "city": "Grand Rapids", "state": "Michigan"}, {"lat": 35.241, "lng": -111.8634, "year": 1973, "cls": "Class A", "city": "Flagstaff", "state": "Arizona"}, {"lat": 44.825, "lng": -118.415, "year": 1973, "cls": "Class A", "city": "Kennewick", "state": "Oregon"}, {"lat": 48.2775, "lng": -121.8078, "year": 1973, "cls": "Class B", "city": "Bellingham", "state": "Washington"}, {"lat": 39.9278, "lng": -122.1781, "year": 1973, "cls": "Class A", "city": "Chico", "state": "California"}, {"lat": 35.2483, "lng": -83.2827, "year": 1973, "cls": "Class A", "city": "Asheville", "state": "North Carolina"}, {"lat": 35.3011, "lng": -99.1702, "year": 1973, "cls": "Class A", "city": "Lawton", "state": "Oklahoma"}, {"lat": 41.9723, "lng": -78.6686, "year": 1973, "cls": "Class A", "city": "Buffalo", "state": "Pennsylvania"}, {"lat": 40.18, "lng": -86.1512, "year": 1973, "cls": "Class A", "city": "Kokomo", "state": "Indiana"}, {"lat": 40.6361, "lng": -80.5353, "year": 1973, "cls": "Class A", "city": "Youngstown", "state": "Ohio"}, {"lat": 26.5988, "lng": -81.8708, "year": 1973, "cls": "Class A", "city": "Cape Coral", "state": "Florida"}, {"lat": 46.803, "lng": -122.4133, "year": 1973, "cls": "Class B", "city": "Tacoma", "state": "Washington"}, {"lat": 42.5638, "lng": -74.8865, "year": 1973, "cls": "Class A", "city": "Utica", "state": "New York"}, {"lat": 37.5704, "lng": -84.2871, "year": 1973, "cls": "Class A", "city": "Lexington", "state": "Kentucky"}, {"lat": 40.0403, "lng": -86.1084, "year": 1973, "cls": "Class A", "city": "Indianapolis", "state": "Indiana"}, {"lat": 41.7629, "lng": -91.5941, "year": 1973, "cls": "Class B", "city": "Iowa City", "state": "Iowa"}, {"lat": 38.1681, "lng": -92.7931, "year": 1973, "cls": "Class B", "city": "Jefferson City", "state": "Missouri"}, {"lat": 38.741, "lng": -77.2324, "year": 1973, "cls": "Class A", "city": "Alexandria", "state": "Virginia"}, {"lat": 38.437, "lng": -92.408, "year": 1973, "cls": "Class A", "city": "Jefferson City", "state": "Missouri"}, {"lat": 40.9807, "lng": -90.1833, "year": 1973, "cls": "Class A", "city": "Peoria", "state": "Illinois"}, {"lat": 38.0905, "lng": -90.0634, "year": 1973, "cls": "Class B", "city": "St. Louis", "state": "Illinois"}, {"lat": 38.809, "lng": -89.918, "year": 1973, "cls": "Class C", "city": "St. Louis", "state": "Illinois"}, {"lat": 47.4549, "lng": -122.2825, "year": 1973, "cls": "Class A", "city": "Seattle", "state": "Washington"}, {"lat": 41.1612, "lng": -87.5812, "year": 1973, "cls": "Class A", "city": "Gary", "state": "Illinois"}, {"lat": 44.7, "lng": -84.71, "year": 1973, "cls": "Class A", "city": "Flint", "state": "Michigan"}, {"lat": 47.2994, "lng": -122.1806, "year": 1973, "cls": "Class A", "city": "Tacoma", "state": "Washington"}, {"lat": 34.2087, "lng": -92.5754, "year": 1973, "cls": "Class A", "city": "Pine Bluff", "state": "Arkansas"}, {"lat": 40.8333, "lng": -122.6417, "year": 1973, "cls": "Class B", "city": "Redding", "state": "California"}, {"lat": 39.445, "lng": -91.07, "year": 1973, "cls": "Class B", "city": "St. Louis", "state": "Missouri"}, {"lat": 31.1603, "lng": -90.7157, "year": 1973, "cls": "Class A", "city": "Baton Rouge", "state": "Mississippi"}, {"lat": 37.54, "lng": -79.57, "year": 1972, "cls": "Class A", "city": "Greensboro", "state": "Virginia"}, {"lat": 35.6267, "lng": -81.5917, "year": 1972, "cls": "Class A", "city": "Spartanburg", "state": "North Carolina"}, {"lat": 43.7983, "lng": -84.2114, "year": 1972, "cls": "Class A", "city": "Flint", "state": "Michigan"}, {"lat": 39.9352, "lng": -89.8887, "year": 1972, "cls": "Class A", "city": "Springfield", "state": "Illinois"}, {"lat": 43.1546, "lng": -75.7391, "year": 1972, "cls": "Class B", "city": "Syracuse", "state": "New York"}, {"lat": 30.2576, "lng": -92.6221, "year": 1972, "cls": "Class A", "city": "Lake Charles", "state": "Louisiana"}, {"lat": 37.8114, "lng": -83.0801, "year": 1972, "cls": "Class A", "city": "Huntington", "state": "Kentucky"}, {"lat": 37.5703, "lng": -118.972, "year": 1972, "cls": "Class A", "city": "Clovis", "state": "California"}, {"lat": 38.7478, "lng": -90.1455, "year": 1972, "cls": "Class B", "city": "St. Louis", "state": "Illinois"}, {"lat": 47.0033, "lng": -123.4822, "year": 1972, "cls": "Class A", "city": "Olympia", "state": "Washington"}, {"lat": 39.679, "lng": -119.6665, "year": 1972, "cls": "Class B", "city": "Sparks", "state": "Nevada"}, {"lat": 46.0633, "lng": -122.1967, "year": 1972, "cls": "Class B", "city": "Portland", "state": "Washington"}, {"lat": 39.679, "lng": -119.6665, "year": 1972, "cls": "Class A", "city": "Sparks", "state": "Nevada"}, {"lat": 39.0114, "lng": -76.5386, "year": 1972, "cls": "Class B", "city": "Baltimore", "state": "Maryland"}, {"lat": 41.1174, "lng": -80.9835, "year": 1972, "cls": "Class A", "city": "Warren", "state": "Ohio"}, {"lat": 28.6232, "lng": -81.129, "year": 1972, "cls": "Class A", "city": "Orlando", "state": "Florida"}, {"lat": 32.36, "lng": -96.66, "year": 1972, "cls": "Class A", "city": "Mesquite", "state": "Texas"}, {"lat": 45.7464, "lng": -122.2375, "year": 1972, "cls": "Class A", "city": "Portland", "state": "Washington"}, {"lat": 30.323, "lng": -85.4427, "year": 1972, "cls": "Class B", "city": "Dothan", "state": "Florida"}, {"lat": 25.4817, "lng": -80.5158, "year": 1972, "cls": "Class B", "city": "Hialeah", "state": "Florida"}, {"lat": 38.8806, "lng": -82.4338, "year": 1972, "cls": "Class B", "city": "Huntington", "state": "Ohio"}, {"lat": 32.895, "lng": -93.45, "year": 1971, "cls": "Class A", "city": "Shreveport", "state": "Louisiana"}, {"lat": 40.8959, "lng": -74.2918, "year": 1971, "cls": "Class A", "city": "Paterson", "state": "New Jersey"}, {"lat": 48.0835, "lng": -121.9683, "year": 1971, "cls": "Class B", "city": "Seattle", "state": "Washington"}, {"lat": 36.0994, "lng": -80.7704, "year": 1971, "cls": "Class A", "city": "Winston-Salem", "state": "North Carolina"}, {"lat": 40.025, "lng": -105.4458, "year": 1971, "cls": "Class B", "city": "Boulder", "state": "Colorado"}, {"lat": 39.25, "lng": -106.3, "year": 1971, "cls": "Class A", "city": "Boulder", "state": "Colorado"}, {"lat": 38.1442, "lng": -85.8918, "year": 1971, "cls": "Class B", "city": "Louisville", "state": "Kentucky"}, {"lat": 29.7351, "lng": -81.962, "year": 1971, "cls": "Class A", "city": "Gainesville", "state": "Florida"}, {"lat": 40.6807, "lng": -80.5716, "year": 1971, "cls": "Class A", "city": "Youngstown", "state": "Ohio"}, {"lat": 39.7198, "lng": -106.1666, "year": 1971, "cls": "Class A", "city": "Boulder", "state": "Colorado"}, {"lat": 45.4237, "lng": -122.3876, "year": 1971, "cls": "Class A", "city": "Portland", "state": "Oregon"}, {"lat": 47.0849, "lng": -122.5926, "year": 1971, "cls": "Class B", "city": "Tacoma", "state": "Washington"}, {"lat": 35.545, "lng": -85.0667, "year": 1970, "cls": "Class B", "city": "Chattanooga", "state": "Tennessee"}, {"lat": 42.7525, "lng": -91.8043, "year": 1970, "cls": "Class A", "city": "Waterloo", "state": "Iowa"}, {"lat": 47.1994, "lng": -120.2758, "year": 1970, "cls": "Class B", "city": "Yakima", "state": "Washington"}, {"lat": 41.1071, "lng": -81.1414, "year": 1970, "cls": "Class B", "city": "Warren", "state": "Ohio"}, {"lat": 43.1107, "lng": -71.3541, "year": 1970, "cls": "Class B", "city": "Manchester", "state": "New Hampshire"}, {"lat": 43.005, "lng": -91.1715, "year": 1970, "cls": "Class B", "city": "La Crosse", "state": "Iowa"}, {"lat": 38.7305, "lng": -78.3345, "year": 1970, "cls": "Class A", "city": "Alexandria", "state": "Virginia"}, {"lat": 39.592, "lng": -119.975, "year": 1970, "cls": "Class B", "city": "Reno", "state": "Nevada"}, {"lat": 44.6335, "lng": -121.8165, "year": 1970, "cls": "Class B", "city": "Bend", "state": "Oregon"}, {"lat": 40.4871, "lng": -112.1402, "year": 1970, "cls": "Class B", "city": "West Jordan", "state": "Utah"}, {"lat": 45.4861, "lng": -122.277, "year": 1970, "cls": "Class B", "city": "Portland", "state": "Oregon"}, {"lat": 46.37, "lng": -122.82, "year": 1970, "cls": "Class B", "city": "Olympia", "state": "Washington"}, {"lat": 33.007, "lng": -80.156, "year": 1970, "cls": "Class A", "city": "North Charleston", "state": "South Carolina"}, {"lat": 42.5558, "lng": -96.4756, "year": 1970, "cls": "Class B", "city": "Sioux City", "state": "Iowa"}, {"lat": 39.1459, "lng": -77.6742, "year": 1970, "cls": "Class A", "city": "Washington", "state": "Virginia"}, {"lat": 29.5385, "lng": -90.593, "year": 1970, "cls": "Class A", "city": "Houma", "state": "Louisiana"}, {"lat": 47.5225, "lng": -121.7569, "year": 1970, "cls": "Class B", "city": "Seattle", "state": "Washington"}, {"lat": 47.7117, "lng": -121.1544, "year": 1970, "cls": "Class B", "city": "Seattle", "state": "Washington"}, {"lat": 35.6845, "lng": -83.5357, "year": 1970, "cls": "Class A", "city": "Knoxville", "state": "Tennessee"}]