[{"name": "Cape Girardeau Crash (legend)", "lat": 37.3059, "lng": -89.5181, "year": 1941, "city": "Cape Girardeau", "state": "MO"}, {"name": "Trinity UFO Case", "lat": 33.6773, "lng": -106.4756, "year": 1945, "city": "San Antonio vicinity", "state": "NM"}, {"name": "Roswell Incident", "lat": 33.95031, "lng": -105.31389, "year": 1947, "city": "Corona (near Roswell)", "state": "NM"}, {"name": "Aztec UFO Incident", "lat": 36.8222, "lng": -107.9928, "year": 1948, "city": "Aztec", "state": "NM"}, {"name": "Kingman UFO Crash (reported)", "lat": 35.1894, "lng": -114.053, "year": 1953, "city": "Kingman", "state": "AZ"}, {"name": "Kecksburg Incident", "lat": 40.1105, "lng": -79.2741, "year": 1965, "city": "Kecksburg", "state": "PA"}, {"name": "Shag Harbor (U.S. proximity)", "lat": 43.8, "lng": -69.0, "year": 1967, "city": "Gulf of Maine", "state": "ME"}, {"name": "Carbondale UFO Crash (reported)", "lat": 41.5737, "lng": -75.5019, "year": 1974, "city": "Carbondale", "state": "PA"}, {"name": "Niagara Falls Incident", "lat": 43.0962, "lng": -79.0377, "year": 1992, "city": "Niagara Falls", "state": "NY"}, {"name": "Long Island Crash Reports", "lat": 40.7891, "lng": -73.135, "year": 1992, "city": "Long Island", "state": "NY"}, {"name": "Aurora Reinvestigation", "lat": 33.0604, "lng": -97.515, "year": 2000, "city": "Aurora", "state": "TX"}]