[{"lat":40.71,"lng":-74.01,"year":1950,"city":"New York City","state":"NY","shape":"Oval","duration":"900.0"},{"lat":35.2,"lng":-91.83,"year":1950,"city":"Arkansas","state":"AR","shape":"Disk","duration":"180.0"},{"lat":38.07,"lng":-78.89,"year":1950,"city":"Waynesborough","state":"VA","shape":"Disk","duration":"300.0"},{"lat":32.77,"lng":-89.12,"year":1950,"city":"Philadelphia","state":"MS","shape":"Disk","duration":"600.0"},{"lat":40.44,"lng":-80.0,"year":1950,"city":"Pittsburgh","state":"PA","shape":"Oval","duration":"1500.0"},{"lat":39.03,"lng":-77.08,"year":1950,"city":"Kensington","state":"MD","shape":"Oval","duration":"600.0"},{"lat":39.1,"lng":-94.58,"year":1950,"city":"Kansas City","state":"MO","shape":"Disk","duration":"900.0"},{"lat":38.3,"lng":-122.28,"year":1950,"city":"Napa","state":"CA","shape":"Disk","duration":"120.0"},{"lat":42.38,"lng":-82.94,"year":1950,"city":"Grosse Pointe Park","state":"MI","shape":"Oval","duration":"600.0"},{"lat":30.79,"lng":-85.68,"year":1950,"city":"Bonifay (Near)","state":"FL","shape":"Disk","duration":"10.0"},{"lat":34.66,"lng":-88.57,"year":1950,"city":"Booneville","state":"MS","shape":"Disk","duration":"4.0"},{"lat":29.3,"lng":-94.8,"year":1950,"city":"Galveston","state":"TX","shape":"Sphere","duration":"600.0"},{"lat":45.97,"lng":-89.89,"year":1950,"city":"Lac Du Flambeau","state":"WI","shape":"Disk","duration":"30.0"},{"lat":38.39,"lng":-105.12,"year":1950,"city":"Florence","state":"CO","shape":"Disk","duration":"3.0"},{"lat":38.39,"lng":-105.12,"year":1950,"city":"Florence","state":"CO","shape":"Light","duration":"0.5"},{"lat":47.68,"lng":-116.78,"year":1950,"city":"Coeur Dalene","state":"ID","shape":"Cigar","duration":"10.0"},{"lat":40.83,"lng":-80.54,"year":1950,"city":"East Palestine","state":"OH","shape":"Light","duration":"300.0"},{"lat":40.74,"lng":-74.17,"year":1950,"city":"Newark","state":"NJ","shape":"Sphere","duration":"300.0"},{"lat":34.6,"lng":-119.51,"year":1950,"city":"Los Padres National Forest","state":"CA","shape":"Formation","duration":"20.0"},{"lat":40.84,"lng":-78.88,"year":1950,"city":"Smithport","state":"PA","shape":"Disk","duration":"120.0"},{"lat":38.25,"lng":-85.76,"year":1950,"city":"Louisville","state":"KY","shape":"Other","duration":"60.0"},{"lat":45.78,"lng":-119.22,"year":1950,"city":"Stanfield","state":"OR","shape":"Disk","duration":"180.0"},{"lat":37.48,"lng":-82.52,"year":1950,"city":"Pikeville","state":"KY","shape":"Disk","duration":"600.0"},{"lat":40.44,"lng":-73.99,"year":1950,"city":"Sandy Hook/Highlands","state":"NJ","shape":"Triangle","duration":"300.0"},{"lat":37.46,"lng":-122.43,"year":1950,"city":"Half Moon Bay","state":"CA","shape":"Other","duration":"600.0"},{"lat":33.83,"lng":-116.54,"year":1951,"city":"Palm Springs","state":"CA","shape":"Cigar","duration":"3.0"},{"lat":42.0,"lng":-72.6,"year":1951,"city":"Thompsonville","state":"CT","shape":"Disk","duration":"30.0"},{"lat":34.05,"lng":-118.24,"year":1951,"city":"Los Angeles","state":"CA","shape":"Disk","duration":"2700.0"},{"lat":35.47,"lng":-97.52,"year":1951,"city":"Oklahoma (Northeastern Part; In-FLight Sighting)","state":"OK","shape":"Cigar","duration":"300.0"},{"lat":35.2,"lng":-77.21,"year":1951,"city":"Jasper","state":"NC","shape":"Oval","duration":"300.0"},{"lat":34.81,"lng":-119.15,"year":1951,"city":"Mount Pinos","state":"CA","shape":"Disk","duration":"7200.0"},{"lat":33.41,"lng":-91.06,"year":1951,"city":"Greenville","state":"MS","shape":"Disk","duration":"300.0"},{"lat":40.76,"lng":-73.89,"year":1951,"city":"Jackson Heights","state":"NY","shape":"Disk","duration":"5.0"},{"lat":33.52,"lng":-86.8,"year":1951,"city":"Birmingham","state":"AL","shape":"Undefined","duration":"3.0"},{"lat":47.7,"lng":-117.11,"year":1951,"city":"Otis Orchards","state":"WA","shape":"Disk","duration":"120.0"},{"lat":33.75,"lng":-84.39,"year":1951,"city":"Atlanta","state":"GA","shape":"Undefined","duration":"120.0"},{"lat":41.53,"lng":-109.47,"year":1951,"city":"Green River","state":"WY","shape":"Sphere","duration":"420.0"},{"lat":40.23,"lng":-111.66,"year":1951,"city":"Provo","state":"UT","shape":"Disk","duration":"1800.0"},{"lat":47.67,"lng":-117.24,"year":1951,"city":"Spokane Valley","state":"WA","shape":"Sphere","duration":"10800.0"},{"lat":34.26,"lng":-118.31,"year":1951,"city":"Sunland / Tujunga","state":"CA","shape":"Circle","duration":"4.0"},{"lat":40.52,"lng":-78.39,"year":1951,"city":"Altoona","state":"PA","shape":"Disk","duration":"1200.0"},{"lat":32.85,"lng":-106.11,"year":1951,"city":"Holloman Afb","state":"NM","shape":"Circle","duration":"10.0"},{"lat":42.1,"lng":-75.92,"year":1952,"city":"Binghamton","state":"NY","shape":"Disk","duration":"900.0"},{"lat":36.24,"lng":-115.05,"year":1952,"city":"Nellis Afb (Las Vegas)","state":"NV","shape":"Disk","duration":"1800.0"},{"lat":41.85,"lng":-87.65,"year":1952,"city":"Chicago","state":"IL","shape":"Disk","duration":"2700.0"},{"lat":33.14,"lng":-96.11,"year":1952,"city":"Greenville","state":"TX","shape":"Triangle","duration":"120.0"},{"lat":47.39,"lng":-122.83,"year":1952,"city":"Allyn","state":"WA","shape":"Disk","duration":"10800.0"},{"lat":43.01,"lng":-88.47,"year":1952,"city":"Dousman","state":"WI","shape":"Undefined","duration":"10.0"},{"lat":36.88,"lng":-76.3,"year":1952,"city":"Norfolk/Newport News","state":"VA","shape":"Fireball","duration":"10.0"},{"lat":39.63,"lng":-105.32,"year":1952,"city":"Evergreen","state":"CO","shape":"Disk","duration":"18000.0"},{"lat":41.85,"lng":-87.65,"year":1952,"city":"Chicago (South Suburb)","state":"IL","shape":"Circle","duration":"600.0"},{"lat":39.93,"lng":-85.85,"year":1952,"city":"Fortville","state":"IN","shape":"Disk","duration":"20.0"},{"lat":30.33,"lng":-81.66,"year":1952,"city":"Jacksonville","state":"FL","shape":"Triangle","duration":"30.0"},{"lat":33.99,"lng":-118.18,"year":1952,"city":"Maywood","state":"CA","shape":"Circle","duration":"300.0"},{"lat":33.54,"lng":-112.38,"year":1952,"city":"Luke Airforce Base","state":"AZ","shape":"Egg","duration":"900.0"},{"lat":42.73,"lng":-84.56,"year":1952,"city":"Lansing (Few Miles Northwest Of In The Country)","state":"MI","shape":"Other","duration":"2.0"},{"lat":39.85,"lng":-75.36,"year":1952,"city":"Chester","state":"PA","shape":"Oval","duration":"300.0"},{"lat":31.42,"lng":-103.49,"year":1952,"city":"Pecos","state":"TX","shape":"Disk","duration":"7200.0"},{"lat":40.71,"lng":-74.01,"year":1952,"city":"New York City (Bronx)","state":"NY","shape":"Disk","duration":"60.0"},{"lat":47.31,"lng":-122.23,"year":1952,"city":"Auburn","state":"WA","shape":"Oval","duration":"60.0"},{"lat":25.77,"lng":-80.19,"year":1952,"city":"Miami","state":"FL","shape":"Disk","duration":"18000.0"},{"lat":46.63,"lng":-95.09,"year":1952,"city":"Sebeka","state":"MN","shape":"Other","duration":"1800.0"},{"lat":42.33,"lng":-83.05,"year":1952,"city":"Detroit","state":"MI","shape":"Sphere","duration":"300.0"},{"lat":47.25,"lng":-122.44,"year":1952,"city":"Tacoma","state":"WA","shape":"Sphere","duration":"120.0"},{"lat":39.63,"lng":-105.32,"year":1952,"city":"Evergreen","state":"CO","shape":"Circle","duration":"14400.0"},{"lat":32.74,"lng":-97.11,"year":1952,"city":"Arlington","state":"TX","shape":"Disk","duration":"900.0"},{"lat":38.89,"lng":-77.08,"year":1952,"city":"Arlington","state":"VA","shape":"Oval","duration":"1200.0"},{"lat":33.78,"lng":-118.26,"year":1952,"city":"Wilmington","state":"CA","shape":"Disk","duration":"120.0"},{"lat":33.46,"lng":-117.61,"year":1952,"city":"Undefined","state":"CA","shape":"Disk","duration":"2.0"},{"lat":41.97,"lng":-76.43,"year":1952,"city":"Litchfield","state":"PA","shape":"Other","duration":"300.0"},{"lat":33.95,"lng":-118.21,"year":1952,"city":"South Gate","state":"CA","shape":"Circle","duration":"60.0"},{"lat":47.5,"lng":-121.79,"year":1952,"city":"North Bend","state":"WA","shape":"Other","duration":"180.0"},{"lat":40.71,"lng":-74.01,"year":1952,"city":"New York City (Bronx)","state":"NY","shape":"Other","duration":"120.0"},{"lat":34.0,"lng":-88.76,"year":1952,"city":"Okolona","state":"MS","shape":"Oval","duration":"300.0"},{"lat":47.25,"lng":-122.44,"year":1952,"city":"Tacoma","state":"WA","shape":"Sphere","duration":"30.0"},{"lat":41.97,"lng":-71.47,"year":1952,"city":"Manville","state":"RI","shape":"Sphere","duration":"10.0"},{"lat":27.95,"lng":-82.46,"year":1952,"city":"Tampa","state":"FL","shape":"Oval","duration":"9000.0"},{"lat":29.78,"lng":-98.37,"year":1952,"city":"Smithson S Valley","state":"TX","shape":"Cigar","duration":"1800.0"},{"lat":35.98,"lng":-94.32,"year":1952,"city":"Prairie Grove","state":"AR","shape":"Disk","duration":"20.0"},{"lat":39.4,"lng":-84.56,"year":1952,"city":"Hamilton","state":"OH","shape":"Light","duration":"480.0"},{"lat":39.95,"lng":-75.16,"year":1952,"city":"Philadelphia","state":"PA","shape":"Circle","duration":"180.0"},{"lat":44.71,"lng":-69.79,"year":1952,"city":"Norridgewock","state":"ME","shape":"Disk","duration":"300.0"},{"lat":39.1,"lng":-94.58,"year":1952,"city":"Kansas City","state":"MO","shape":"Disk","duration":"90.0"},{"lat":46.29,"lng":-119.28,"year":1952,"city":"Richland","state":"WA","shape":"Circle","duration":"5.0"},{"lat":41.85,"lng":-87.65,"year":1952,"city":"Chicago","state":"IL","shape":"Other","duration":"45.0"},{"lat":44.01,"lng":-90.68,"year":1952,"city":"Camp Mccoy (Enroute To)","state":"WI","shape":"Cylinder","duration":"1800.0"},{"lat":33.66,"lng":-97.72,"year":1953,"city":"Oklahoma/Texas Border","state":"TX","shape":"Cigar","duration":"300.0"},{"lat":41.49,"lng":-99.9,"year":1953,"city":"Nebraska (Rural)","state":"NE","shape":"Undefined","duration":"600.0"},{"lat":42.78,"lng":-71.08,"year":1953,"city":"Haverhill","state":"MA","shape":"chevron","duration":"2.0"},{"lat":42.38,"lng":-71.11,"year":1953,"city":"Cambridge","state":"MA","shape":"Sphere","duration":"180.0"},{"lat":41.01,"lng":-93.31,"year":1953,"city":"Chariton","state":"IA","shape":"Other","duration":"600.0"},{"lat":34.05,"lng":-118.24,"year":1953,"city":"Los Angeles","state":"CA","shape":"Fireball","duration":"5.0"},{"lat":35.45,"lng":-97.4,"year":1953,"city":"Midwest City","state":"OK","shape":"Fireball","duration":"900.0"},{"lat":40.25,"lng":-75.09,"year":1953,"city":"Jamison","state":"PA","shape":"Cigar","duration":"120.0"},{"lat":36.75,"lng":-119.77,"year":1953,"city":"Fresno","state":"CA","shape":"Undefined","duration":"300.0"},{"lat":47.42,"lng":-120.31,"year":1953,"city":"Wenatchee","state":"WA","shape":"Disk","duration":"45.0"},{"lat":47.5,"lng":-121.79,"year":1953,"city":"North Bend","state":"WA","shape":"Circle","duration":"120.0"},{"lat":33.39,"lng":-104.52,"year":1953,"city":"Roswell","state":"NM","shape":"Undefined","duration":"14400.0"},{"lat":29.3,"lng":-94.8,"year":1953,"city":"Galveston","state":"TX","shape":"Cigar","duration":"180.0"},{"lat":41.5,"lng":-81.7,"year":1953,"city":"Cleveland","state":"OH","shape":"Fireball","duration":"35.0"},{"lat":46.15,"lng":-122.91,"year":1953,"city":"Kelso (Cowlitz Co. Hills)","state":"WA","shape":"Oval","duration":"300.0"},{"lat":38.83,"lng":-104.82,"year":1953,"city":"Colorado Springs (Mtsn Nw Of)","state":"CO","shape":"Disk","duration":"10.0"},{"lat":44.76,"lng":-109.03,"year":1953,"city":"Undefined","state":"MT","shape":"Disk","duration":"600.0"},{"lat":41.13,"lng":-101.72,"year":1953,"city":"Ogallala","state":"NE","shape":"Other","duration":"2700.0"},{"lat":38.91,"lng":-77.04,"year":1953,"city":"Washington D.C.","state":"DC","shape":"Light","duration":"300.0"},{"lat":36.17,"lng":-86.78,"year":1953,"city":"Nashville","state":"TN","shape":"Cylinder","duration":"300.0"},{"lat":39.81,"lng":-85.21,"year":1953,"city":"Dublin","state":"IN","shape":"Cone","duration":"1800.0"},{"lat":38.75,"lng":-90.33,"year":1953,"city":"Berkeley","state":"MO","shape":"Fireball","duration":"300.0"},{"lat":38.1,"lng":-122.26,"year":1953,"city":"Vallejo","state":"CA","shape":"Light","duration":"3600.0"},{"lat":38.25,"lng":-85.76,"year":1953,"city":"Louisville","state":"KY","shape":"Circle","duration":"10.0"},{"lat":39.34,"lng":-76.39,"year":1953,"city":"Bowleys Quarters","state":"MD","shape":"Sphere","duration":"240.0"},{"lat":30.2,"lng":-93.87,"year":1953,"city":"Mauriceville","state":"TX","shape":"Disk","duration":"300.0"},{"lat":29.95,"lng":-90.08,"year":1953,"city":"New Orleans","state":"LA","shape":"Oval","duration":"2.0"},{"lat":41.85,"lng":-87.75,"year":1953,"city":"Cicero","state":"IL","shape":"Other","duration":"120.0"},{"lat":40.44,"lng":-74.13,"year":1953,"city":"Keansburg","state":"NJ","shape":"Circle","duration":"540.0"},{"lat":40.0,"lng":-85.75,"year":1953,"city":"Pendleton (2-2 1/2 Mi. Se Of)","state":"IN","shape":"Disk","duration":"180.0"},{"lat":31.97,"lng":-99.9,"year":1953,"city":"Lackland Air Force Base Near Aviation Cadet Barracks","state":"TX","shape":"Disk","duration":"180.0"},{"lat":42.5,"lng":-96.4,"year":1954,"city":"Souix City","state":"IA","shape":"Circle","duration":"30.0"},{"lat":64.84,"lng":-147.72,"year":1954,"city":"Fairbanks","state":"AK","shape":"Undefined","duration":"1140.0"},{"lat":40.88,"lng":-121.66,"year":1954,"city":"Burney","state":"CA","shape":"Disk","duration":"1800.0"},{"lat":37.43,"lng":-122.17,"year":1954,"city":"Stanford Campus","state":"CA","shape":"Disk","duration":"600.0"},{"lat":44.56,"lng":-123.26,"year":1954,"city":"Corvallis (Near; Small Town Of Alsea)","state":"OR","shape":"Diamond","duration":"120.0"},{"lat":39.94,"lng":-91.41,"year":1954,"city":"Quincy (Rural)","state":"IL","shape":"Disk","duration":"7.0"},{"lat":29.76,"lng":-95.36,"year":1954,"city":"Houston","state":"TX","shape":"Disk","duration":"180.0"},{"lat":42.68,"lng":-76.82,"year":1954,"city":"Ovid","state":"NY","shape":"Disk","duration":"600.0"},{"lat":39.8,"lng":-89.64,"year":1954,"city":"Springfield (Rural Area Near)","state":"IL","shape":"Cylinder","duration":"600.0"},{"lat":37.92,"lng":-122.31,"year":1954,"city":"El Cerrito","state":"CA","shape":"Light","duration":"300.0"},{"lat":41.66,"lng":-83.56,"year":1954,"city":"Toledo","state":"OH","shape":"Disk","duration":"60.0"},{"lat":38.39,"lng":-78.13,"year":1954,"city":"Norfolk/Nob","state":"VA","shape":"Disk","duration":"15.0"},{"lat":39.95,"lng":-75.16,"year":1954,"city":"Philadelphia","state":"PA","shape":"Disk","duration":"2.0"},{"lat":34.16,"lng":-117.92,"year":1954,"city":"Fish Canyon","state":"CA","shape":"Light","duration":"60.0"},{"lat":38.74,"lng":-93.57,"year":1954,"city":"Ramey Air Force Base (Puerto Rico)","state":"PR","shape":"Circle","duration":"600.0"},{"lat":40.38,"lng":-105.52,"year":1954,"city":"Estes Park","state":"CO","shape":"Cigar","duration":"300.0"},{"lat":44.92,"lng":-68.85,"year":1954,"city":"Glenburn","state":"ME","shape":"Undefined","duration":"2.0"},{"lat":39.8,"lng":-75.46,"year":1954,"city":"Claymont","state":"DE","shape":"Disk","duration":"10.0"},{"lat":29.6,"lng":-95.18,"year":1954,"city":"Ellington Afb","state":"TX","shape":"Disk","duration":"720.0"},{"lat":38.7,"lng":-77.23,"year":1954,"city":"Lorton","state":"VA","shape":"Other","duration":"120.0"},{"lat":37.08,"lng":-76.36,"year":1954,"city":"Langley Air Force Base","state":"VA","shape":"Circle","duration":"1800.0"},{"lat":31.81,"lng":-99.13,"year":1954,"city":"Thrifty","state":"TX","shape":"Circle","duration":"45.0"},{"lat":33.92,"lng":-118.35,"year":1954,"city":"Hawthorne","state":"CA","shape":"Light","duration":"120.0"},{"lat":34.15,"lng":-118.14,"year":1954,"city":"Pasadena","state":"CA","shape":"Circle","duration":"300.0"},{"lat":42.73,"lng":-71.19,"year":1954,"city":"Methuen","state":"MA","shape":"Undefined","duration":"900.0"},{"lat":34.05,"lng":-118.24,"year":1954,"city":"Los Angeles","state":"CA","shape":"Circle","duration":"15.0"},{"lat":37.91,"lng":-122.06,"year":1954,"city":"Walnut Creek","state":"CA","shape":"Undefined","duration":"300.0"},{"lat":34.0,"lng":-81.03,"year":1954,"city":"West Columbia","state":"SC","shape":"Formation","duration":"600.0"},{"lat":40.95,"lng":-87.45,"year":1954,"city":"Morroco (4 Miles South Of)","state":"IN","shape":"Changing","duration":"900.0"},{"lat":39.95,"lng":-75.16,"year":1954,"city":"Philadelphia","state":"PA","shape":"Disk","duration":"3600.0"},{"lat":39.78,"lng":-85.77,"year":1954,"city":"Greenfield (Rural Area 6 Miles So.)","state":"IN","shape":"Cigar","duration":"300.0"},{"lat":39.11,"lng":-94.63,"year":1954,"city":"Kansas City","state":"KS","shape":"chevron","duration":"180.0"},{"lat":40.74,"lng":-73.14,"year":1954,"city":"Oakdale","state":"NY","shape":"Disk","duration":"45.0"},{"lat":40.94,"lng":-72.3,"year":1954,"city":"Bridge Hampton","state":"NY","shape":"Light","duration":"1.0"},{"lat":40.73,"lng":-73.45,"year":1954,"city":"Farmingdale","state":"NY","shape":"Oval","duration":"1800.0"},{"lat":41.49,"lng":-87.52,"year":1954,"city":"Dyer","state":"IN","shape":"Triangle","duration":"15.0"},{"lat":41.66,"lng":-76.85,"year":1954,"city":"Canton","state":"PA","shape":"Disk","duration":"30.0"},{"lat":34.17,"lng":-118.38,"year":1954,"city":"North Hollywood","state":"CA","shape":"Light","duration":"1800.0"},{"lat":47.19,"lng":-122.29,"year":1954,"city":"Puyallup","state":"WA","shape":"Oval","duration":"2.0"},{"lat":42.87,"lng":-76.98,"year":1954,"city":"Geneva","state":"NY","shape":"Disk","duration":"120.0"},{"lat":30.09,"lng":-94.1,"year":1954,"city":"Beaumont","state":"TX","shape":"Disk","duration":"300.0"},{"lat":40.72,"lng":-75.25,"year":1954,"city":"Palmer Township","state":"PA","shape":"Other","duration":"600.0"},{"lat":38.72,"lng":-80.65,"year":1954,"city":"Flatwoods","state":"WV","shape":"Circle","duration":"60.0"},{"lat":30.1,"lng":-98.42,"year":1954,"city":"Blanco","state":"TX","shape":"Other","duration":"300.0"},{"lat":44.24,"lng":-86.32,"year":1954,"city":"Manistee","state":"MI","shape":"Circle","duration":"8.0"},{"lat":39.74,"lng":-104.98,"year":1954,"city":"Denver","state":"CO","shape":"Fireball","duration":"10.0"},{"lat":31.58,"lng":-96.61,"year":1954,"city":"Thelma (South Of)","state":"TX","shape":"Disk","duration":"300.0"},{"lat":40.35,"lng":-74.06,"year":1954,"city":"Red Bank","state":"NJ","shape":"Circle","duration":"300.0"},{"lat":34.03,"lng":-117.04,"year":1954,"city":"Yucaipa","state":"CA","shape":"Oval","duration":"70.0"},{"lat":40.71,"lng":-74.01,"year":1955,"city":"New York City (Brooklyn)","state":"NY","shape":"Light","duration":"300.0"},{"lat":42.16,"lng":-71.01,"year":1955,"city":"Holbrook","state":"MA","shape":"Egg","duration":"60.0"},{"lat":30.38,"lng":-87.28,"year":1955,"city":"Warrington","state":"FL","shape":"Fireball","duration":"300.0"},{"lat":47.52,"lng":-95.4,"year":1955,"city":"Bagley","state":"MN","shape":"Circle","duration":"7200.0"},{"lat":39.16,"lng":-84.46,"year":1955,"city":"Cincinnati","state":"OH","shape":"Disk","duration":"120.0"},{"lat":38.02,"lng":-122.13,"year":1955,"city":"Martinez (Outskirts)","state":"CA","shape":"Circle","duration":"1800.0"},{"lat":36.1,"lng":-84.13,"year":1955,"city":"Clinton","state":"TN","shape":"Egg","duration":"360.0"},{"lat":30.42,"lng":-87.22,"year":1955,"city":"Pensacola","state":"FL","shape":"Light","duration":"300.0"},{"lat":37.96,"lng":-91.83,"year":1955,"city":"Missouri (Northwest Part)","state":"MO","shape":"Light","duration":"300.0"},{"lat":40.28,"lng":-79.37,"year":1955,"city":"Youngstown","state":"PA","shape":"Undefined","duration":"60.0"},{"lat":29.21,"lng":-81.02,"year":1955,"city":"Daytona Beach","state":"FL","shape":"Fireball","duration":"120.0"},{"lat":44.88,"lng":-93.03,"year":1955,"city":"South St. Paul","state":"MN","shape":"Disk","duration":"18000.0"},{"lat":40.31,"lng":-88.16,"year":1955,"city":"Rantoul","state":"IL","shape":"Light","duration":"600.0"},{"lat":39.6,"lng":-74.21,"year":1955,"city":"Beach Haven Park","state":"NJ","shape":"Disk","duration":"60.0"},{"lat":34.65,"lng":-118.22,"year":1955,"city":"Quartz Hill","state":"CA","shape":"Disk","duration":"2.0"},{"lat":33.58,"lng":-101.85,"year":1955,"city":"Lubbock","state":"TX","shape":"Cigar","duration":"120.0"},{"lat":35.87,"lng":-101.97,"year":1955,"city":"Dumas","state":"TX","shape":"Light","duration":"600.0"},{"lat":34.72,"lng":-76.73,"year":1955,"city":"Morehead City","state":"NC","shape":"Disk","duration":"300.0"},{"lat":47.65,"lng":-121.91,"year":1955,"city":"Carnation","state":"WA","shape":"Disk","duration":"480.0"},{"lat":34.12,"lng":-94.02,"year":1955,"city":"Dierks","state":"AR","shape":"Cigar","duration":"10.0"},{"lat":38.99,"lng":-105.06,"year":1955,"city":"Woodland Park","state":"CO","shape":"Oval","duration":"15.0"},{"lat":39.99,"lng":-75.4,"year":1955,"city":"Newtown Square","state":"PA","shape":"Circle","duration":"4.0"},{"lat":39.09,"lng":-94.42,"year":1955,"city":"Independence","state":"MO","shape":"Fireball","duration":"300.0"},{"lat":28.71,"lng":-100.5,"year":1955,"city":"Eagle Pass","state":"TX","shape":"Cigar","duration":"600.0"},{"lat":34.09,"lng":-117.89,"year":1955,"city":"Covina","state":"CA","shape":"Disk","duration":"600.0"},{"lat":38.01,"lng":-119.01,"year":1955,"city":"Mono Lake (Area)","state":"CA","shape":"Circle","duration":"5.0"},{"lat":34.09,"lng":-117.89,"year":1955,"city":"West Covina","state":"CA","shape":"Undefined","duration":"4.0"},{"lat":41.93,"lng":-73.91,"year":1955,"city":"Rhinebeck","state":"NY","shape":"Light","duration":"2400.0"},{"lat":40.42,"lng":-80.59,"year":1956,"city":"Weirton","state":"WV","shape":"Disk","duration":"10.0"},{"lat":38.23,"lng":-122.64,"year":1956,"city":"Petaluma","state":"CA","shape":"Oval","duration":"1800.0"},{"lat":39.01,"lng":-76.78,"year":1956,"city":"Bowie","state":"MD","shape":"Disk","duration":"900.0"},{"lat":44.61,"lng":-93.0,"year":1956,"city":"Hampton","state":"MN","shape":"Sphere","duration":"120.0"},{"lat":40.8,"lng":-81.38,"year":1956,"city":"Canton","state":"OH","shape":"Cigar","duration":"120.0"},{"lat":28.19,"lng":-80.6,"year":1956,"city":"Pine Castle Afb","state":"FL","shape":"Light","duration":"2700.0"},{"lat":34.77,"lng":-96.68,"year":1956,"city":"Ada","state":"OK","shape":"Circle","duration":"20.0"},{"lat":38.81,"lng":-94.53,"year":1956,"city":"Belton","state":"MO","shape":"Other","duration":"600.0"},{"lat":35.15,"lng":-90.05,"year":1956,"city":"Memphis","state":"TN","shape":"Cylinder","duration":"900.0"},{"lat":32.54,"lng":-86.31,"year":1956,"city":"Elmore","state":"AL","shape":"Sphere","duration":"3600.0"},{"lat":38.33,"lng":-80.78,"year":1956,"city":"Upper Glade","state":"WV","shape":"Egg","duration":"300.0"},{"lat":41.08,"lng":-81.52,"year":1956,"city":"Akron","state":"OH","shape":"Other","duration":"30.0"},{"lat":37.77,"lng":-122.42,"year":1956,"city":"San Francisco","state":"CA","shape":"Other","duration":"180.0"},{"lat":37.44,"lng":-122.14,"year":1956,"city":"Palo Alto","state":"CA","shape":"Fireball","duration":"600.0"},{"lat":42.85,"lng":-74.99,"year":1956,"city":"Richfield Springs","state":"NY","shape":"Cigar","duration":"120.0"},{"lat":33.2,"lng":-117.24,"year":1956,"city":"Vista","state":"CA","shape":"Cigar","duration":"1200.0"},{"lat":35.88,"lng":-84.15,"year":1956,"city":"Farragut","state":"TN","shape":"Cigar","duration":"600.0"},{"lat":36.15,"lng":-95.99,"year":1956,"city":"Tulsa","state":"OK","shape":"Flash","duration":"300.0"},{"lat":39.57,"lng":-75.47,"year":1956,"city":"Salem","state":"NJ","shape":"Disk","duration":"68.0"},{"lat":40.71,"lng":-74.01,"year":1956,"city":"New York City (Queens)","state":"NY","shape":"Light","duration":"60.0"},{"lat":39.16,"lng":-84.46,"year":1956,"city":"Cincinnati","state":"OH","shape":"Disk","duration":"1200.0"},{"lat":36.96,"lng":-120.06,"year":1956,"city":"Madera","state":"CA","shape":"Sphere","duration":"120.0"},{"lat":40.14,"lng":-75.12,"year":1956,"city":"Willow Grove","state":"PA","shape":"Light","duration":"7200.0"},{"lat":37.31,"lng":-89.52,"year":1956,"city":"Cape Girardeau","state":"MO","shape":"Diamond","duration":"300.0"},{"lat":40.49,"lng":-74.45,"year":1956,"city":"New Brunswick","state":"NJ","shape":"Disk","duration":"600.0"},{"lat":29.76,"lng":-95.36,"year":1956,"city":"Houston","state":"TX","shape":"Triangle","duration":"900.0"},{"lat":40.27,"lng":-96.75,"year":1956,"city":"Beatrice (14 Mi Sw Of)","state":"NE","shape":"Other","duration":"120.0"},{"lat":37.69,"lng":-97.34,"year":1956,"city":"Wichita","state":"KS","shape":"Undefined","duration":"90.0"},{"lat":38.58,"lng":-121.49,"year":1956,"city":"Sacramento","state":"CA","shape":"Disk","duration":"420.0"},{"lat":44.43,"lng":-110.59,"year":1956,"city":"Yellowstone Park (Near South Entrance)","state":"WY","shape":"Disk","duration":"60.0"},{"lat":40.5,"lng":-81.64,"year":1956,"city":"Sugarcreek","state":"OH","shape":"Disk","duration":"30.0"},{"lat":41.58,"lng":-72.5,"year":1956,"city":"East Hampton","state":"CT","shape":"Disk","duration":"120.0"},{"lat":32.99,"lng":-86.08,"year":1956,"city":"Bradford","state":"AL","shape":"Sphere","duration":"20.0"},{"lat":42.5,"lng":-71.58,"year":1956,"city":"Harvard","state":"MA","shape":"Undefined","duration":"3.0"},{"lat":36.85,"lng":-76.29,"year":1956,"city":"Norfolk","state":"VA","shape":"Cigar","duration":"90.0"},{"lat":39.33,"lng":-76.44,"year":1956,"city":"Middle River","state":"MD","shape":"Circle","duration":"60.0"},{"lat":33.67,"lng":-93.59,"year":1956,"city":"Hope","state":"AR","shape":"Circle","duration":"1200.0"},{"lat":41.03,"lng":-73.63,"year":1956,"city":"Greenwich","state":"CT","shape":"Light","duration":"1290.0"},{"lat":43.37,"lng":-72.17,"year":1956,"city":"Newport","state":"NH","shape":"Rectangle","duration":"300.0"},{"lat":28.98,"lng":-96.65,"year":1956,"city":"Edna","state":"TX","shape":"Circle","duration":"20.0"},{"lat":37.93,"lng":-87.9,"year":1956,"city":"Mt. Vernon","state":"IN","shape":"Disk","duration":"8.0"},{"lat":45.46,"lng":-98.49,"year":1956,"city":"Aberdeen","state":"SD","shape":"Circle","duration":"120.0"},{"lat":39.96,"lng":-83.0,"year":1956,"city":"Columbus","state":"OH","shape":"Formation","duration":"240.0"},{"lat":32.78,"lng":-96.8,"year":1957,"city":"Dallas","state":"TX","shape":"Undefined","duration":"20.0"},{"lat":31.68,"lng":-92.13,"year":1957,"city":"Jena","state":"LA","shape":"Sphere","duration":"900.0"},{"lat":42.54,"lng":-71.62,"year":1957,"city":"Fort Devans","state":"MA","shape":"Oval","duration":"900.0"},{"lat":34.05,"lng":-118.24,"year":1957,"city":"Los Angeles","state":"CA","shape":"Formation","duration":"900.0"},{"lat":34.05,"lng":-118.24,"year":1957,"city":"Los Angeles","state":"CA","shape":"Disk","duration":"900.0"},{"lat":40.8,"lng":-81.38,"year":1957,"city":"Canton","state":"OH","shape":"Cigar","duration":"180.0"},{"lat":41.93,"lng":-73.91,"year":1957,"city":"Rhinebeck","state":"NY","shape":"Diamond","duration":"20.0"},{"lat":31.76,"lng":-106.49,"year":1957,"city":"El Paso","state":"TX","shape":"Disk","duration":"7.0"},{"lat":43.31,"lng":-73.64,"year":1957,"city":"Glens Falls","state":"NY","shape":"Disk","duration":"240.0"},{"lat":32.81,"lng":-96.95,"year":1957,"city":"Irving","state":"TX","shape":"Light","duration":"300.0"},{"lat":32.81,"lng":-96.95,"year":1957,"city":"Union Bower Are Irving","state":"TX","shape":"Formation","duration":"1800.0"},{"lat":40.77,"lng":-73.53,"year":1957,"city":"Hicksville (Long Island)","state":"NY","shape":"Circle","duration":"15.0"},{"lat":44.48,"lng":-70.19,"year":1957,"city":"Livermore Falls","state":"ME","shape":"Diamond","duration":"300.0"},{"lat":40.45,"lng":-85.37,"year":1957,"city":"Hartford City","state":"IN","shape":"Disk","duration":"300.0"},{"lat":42.54,"lng":-83.48,"year":1957,"city":"Walled Lake","state":"MI","shape":"Cylinder","duration":"1800.0"},{"lat":37.73,"lng":-122.16,"year":1957,"city":"San Leandro","state":"CA","shape":"Light","duration":"90.0"},{"lat":33.9,"lng":-118.08,"year":1957,"city":"Norwalk","state":"CA","shape":"Disk","duration":"480.0"},{"lat":42.55,"lng":-83.21,"year":1957,"city":"Birmingham","state":"MI","shape":"Undefined","duration":"300.0"},{"lat":40.71,"lng":-74.01,"year":1957,"city":"New York City","state":"NY","shape":"teardrop","duration":"600.0"},{"lat":40.81,"lng":-91.11,"year":1957,"city":"Burlington","state":"IA","shape":"Circle","duration":"90.0"},{"lat":35.28,"lng":-93.13,"year":1957,"city":"Russellville","state":"AR","shape":"Sphere","duration":"600.0"},{"lat":43.33,"lng":-78.56,"year":1957,"city":"Barker","state":"NY","shape":"Disk","duration":"180.0"},{"lat":37.89,"lng":-122.3,"year":1957,"city":"Albany","state":"CA","shape":"Circle","duration":"60.0"},{"lat":32.78,"lng":-96.8,"year":1957,"city":"Dallas","state":"TX","shape":"Other","duration":"300.0"},{"lat":37.58,"lng":-81.38,"year":1957,"city":"Mullens/Pineville","state":"WV","shape":"Oval","duration":"180.0"},{"lat":37.65,"lng":-80.75,"year":1957,"city":"Talcott","state":"WV","shape":"Sphere","duration":"15.0"},{"lat":29.36,"lng":-100.9,"year":1957,"city":"Del Rio","state":"TX","shape":"Cigar","duration":"15.0"},{"lat":40.69,"lng":-75.19,"year":1957,"city":"Phillipsburg","state":"NJ","shape":"Cigar","duration":"420.0"},{"lat":39.29,"lng":-76.61,"year":1957,"city":"Baltimore","state":"MD","shape":"Other","duration":"60.0"},{"lat":38.43,"lng":-82.46,"year":1957,"city":"Chesapeake","state":"OH","shape":"Disk","duration":"600.0"},{"lat":34.11,"lng":-118.06,"year":1957,"city":"Temple City","state":"CA","shape":"Light","duration":"900.0"},{"lat":29.76,"lng":-95.36,"year":1957,"city":"Houston","state":"TX","shape":"Diamond","duration":"120.0"},{"lat":41.24,"lng":-77.0,"year":1957,"city":"Williamsport","state":"PA","shape":"Cigar","duration":"120.0"},{"lat":33.77,"lng":-118.19,"year":1957,"city":"Long Beach","state":"CA","shape":"Disk","duration":"120.0"},{"lat":40.9,"lng":-75.5,"year":1957,"city":"Kresgeville","state":"PA","shape":"Undefined","duration":"1200.0"},{"lat":40.76,"lng":-111.89,"year":1957,"city":"Salt  Lake City","state":"UT","shape":"Disk","duration":"900.0"},{"lat":39.74,"lng":-104.98,"year":1957,"city":"Denver","state":"CO","shape":"Light","duration":"900.0"},{"lat":39.1,"lng":-94.58,"year":1957,"city":"Kansas City","state":"MO","shape":"Light","duration":"10800.0"},{"lat":43.64,"lng":-113.3,"year":1957,"city":"Arco","state":"ID","shape":"Disk","duration":"180.0"},{"lat":39.89,"lng":-84.2,"year":1957,"city":"Vandalia","state":"OH","shape":"Disk","duration":"300.0"},{"lat":39.63,"lng":-76.08,"year":1957,"city":"Bainbridge/ Port Deposit","state":"MD","shape":"Fireball","duration":"22.0"},{"lat":39.77,"lng":-86.16,"year":1957,"city":"Indianapolis","state":"IN","shape":"Light","duration":"3600.0"},{"lat":32.72,"lng":-117.16,"year":1957,"city":"San Diego","state":"CA","shape":"Disk","duration":"900.0"},{"lat":43.85,"lng":-73.42,"year":1957,"city":"Ticonderoga","state":"NY","shape":"Disk","duration":"15.0"},{"lat":36.78,"lng":-119.42,"year":1957,"city":"California","state":"CA","shape":"Fireball","duration":"5.0"},{"lat":42.16,"lng":-72.48,"year":1957,"city":"Ludlow","state":"MA","shape":"Cigar","duration":"300.0"},{"lat":46.14,"lng":-122.94,"year":1957,"city":"Longview","state":"WA","shape":"Triangle","duration":"3.0"},{"lat":42.98,"lng":-70.95,"year":1957,"city":"Exeter","state":"NH","shape":"Disk","duration":"180.0"},{"lat":44.31,"lng":-116.08,"year":1957,"city":"Smith S Ferry","state":"ID","shape":"Disk","duration":"600.0"},{"lat":40.88,"lng":-85.5,"year":1957,"city":"Huntington","state":"IN","shape":"Triangle","duration":"3600.0"},{"lat":33.11,"lng":-98.59,"year":1957,"city":"Graham","state":"TX","shape":"Sphere","duration":"30.0"},{"lat":41.32,"lng":-81.63,"year":1957,"city":"Brecksville","state":"OH","shape":"Circle","duration":"180.0"},{"lat":37.23,"lng":-121.97,"year":1957,"city":"Los Gatos (West Of)","state":"CA","shape":"Disk","duration":"60.0"},{"lat":44.94,"lng":-93.09,"year":1957,"city":"St. Paul","state":"MN","shape":"Disk","duration":"300.0"},{"lat":31.76,"lng":-106.49,"year":1957,"city":"El Paso","state":"TX","shape":"Disk","duration":"600.0"},{"lat":29.03,"lng":-95.43,"year":1957,"city":"Lake Jackson","state":"TX","shape":"Fireball","duration":"13.0"},{"lat":47.25,"lng":-122.44,"year":1957,"city":"Tacoma","state":"WA","shape":"Disk","duration":"20.0"},{"lat":36.87,"lng":-87.49,"year":1957,"city":"Hopkinsville","state":"KY","shape":"Cigar","duration":"600.0"},{"lat":61.99,"lng":-146.77,"year":1957,"city":"Nelchina (Near)","state":"AK","shape":"Undefined","duration":"180.0"},{"lat":40.92,"lng":-74.17,"year":1957,"city":"Paterson","state":"NJ","shape":"Disk","duration":"10.0"},{"lat":70.29,"lng":-161.9,"year":1957,"city":"Northeast Cape Afs","state":"AK","shape":"Undefined","duration":"900.0"},{"lat":44.94,"lng":-93.09,"year":1957,"city":"St. Paul","state":"MN","shape":"Light","duration":"45.0"},{"lat":40.71,"lng":-74.01,"year":1957,"city":"New York City (Queens)","state":"NY","shape":"Undefined","duration":"10800.0"},{"lat":29.76,"lng":-95.36,"year":1957,"city":"Houston (Ellington Afb)","state":"TX","shape":"Light","duration":"3.0"},{"lat":39.81,"lng":-104.93,"year":1957,"city":"Commerce City (N. Of Denver)","state":"CO","shape":"Fireball","duration":"600.0"},{"lat":40.9,"lng":-74.02,"year":1957,"city":"Teaneck","state":"NJ","shape":"Cylinder","duration":"120.0"},{"lat":27.8,"lng":-97.4,"year":1957,"city":"Corpus Christi","state":"TX","shape":"Light","duration":"600.0"},{"lat":43.07,"lng":-89.4,"year":1957,"city":"Madison","state":"WI","shape":"Cigar","duration":"3600.0"},{"lat":43.07,"lng":-89.4,"year":1957,"city":"Madison","state":"WI","shape":"Cigar","duration":"3600.0"},{"lat":33.82,"lng":-102.56,"year":1958,"city":"Pep","state":"TX","shape":"Fireball","duration":"2.0"},{"lat":42.61,"lng":-83.93,"year":1958,"city":"Howell","state":"MI","shape":"Cigar","duration":"45.0"},{"lat":44.49,"lng":-73.19,"year":1958,"city":"Winooski","state":"VT","shape":"Oval","duration":"5400.0"},{"lat":44.49,"lng":-73.19,"year":1958,"city":"Winooski","state":"VT","shape":"Oval","duration":"300.0"},{"lat":38.92,"lng":-76.87,"year":1958,"city":"Palmer Park","state":"MD","shape":"Sphere","duration":"1200.0"},{"lat":39.16,"lng":-84.46,"year":1958,"city":"Cincinnati","state":"OH","shape":"Diamond","duration":"86400.0"},{"lat":35.79,"lng":-78.2,"year":1958,"city":"Middlesex","state":"NC","shape":"Circle","duration":"3600.0"},{"lat":37.77,"lng":-122.42,"year":1958,"city":"San Francisco","state":"CA","shape":"Oval","duration":"120.0"},{"lat":40.71,"lng":-74.01,"year":1958,"city":"New York City (Bronx)","state":"NY","shape":"Oval","duration":"10.0"},{"lat":31.9,"lng":-94.39,"year":1958,"city":"Timpson","state":"TX","shape":"Light","duration":"5400.0"},{"lat":40.92,"lng":-98.34,"year":1958,"city":"Grand Island","state":"NE","shape":"Circle","duration":"180.0"},{"lat":39.16,"lng":-84.46,"year":1958,"city":"Cincinnati","state":"OH","shape":"Diamond","duration":"86400.0"},{"lat":34.09,"lng":-117.96,"year":1958,"city":"Baldwin Park","state":"CA","shape":"Cigar","duration":"300.0"},{"lat":40.93,"lng":-73.9,"year":1958,"city":"Yonkers","state":"NY","shape":"Light","duration":"14.0"},{"lat":37.45,"lng":-122.18,"year":1958,"city":"Menlo Park","state":"CA","shape":"Light","duration":"600.0"},{"lat":29.76,"lng":-95.36,"year":1958,"city":"Houston","state":"TX","shape":"Disk","duration":"2700.0"},{"lat":35.47,"lng":-97.52,"year":1958,"city":"Oklahoma (Rural)","state":"OK","shape":"Light","duration":"80.0"},{"lat":36.34,"lng":-96.8,"year":1958,"city":"Pawnee","state":"OK","shape":"Light","duration":"1800.0"},{"lat":37.0,"lng":-91.7,"year":1958,"city":"Mountain View","state":"MO","shape":"Other","duration":"7200.0"},{"lat":47.64,"lng":-122.69,"year":1958,"city":"Silverdale","state":"WA","shape":"Cylinder","duration":"32400.0"},{"lat":33.67,"lng":-84.02,"year":1958,"city":"Conyers","state":"GA","shape":"teardrop","duration":"300.0"},{"lat":44.21,"lng":-69.07,"year":1958,"city":"Camden (Penobscot Bay)","state":"ME","shape":"Disk","duration":"2.0"},{"lat":38.49,"lng":-97.23,"year":1958,"city":"Durham","state":"KS","shape":"Light","duration":"2.0"},{"lat":29.8,"lng":-90.82,"year":1958,"city":"Thibodaux","state":"LA","shape":"Fireball","duration":"90.0"},{"lat":40.19,"lng":-85.39,"year":1958,"city":"Muncie","state":"IN","shape":"Undefined","duration":"300.0"},{"lat":42.9,"lng":-78.75,"year":1958,"city":"Cheektowaga","state":"NY","shape":"teardrop","duration":"20.0"},{"lat":38.11,"lng":-122.57,"year":1958,"city":"Novato","state":"CA","shape":"Disk","duration":"90.0"},{"lat":41.59,"lng":-109.2,"year":1958,"city":"Rock Springs","state":"WY","shape":"Disk","duration":"60.0"},{"lat":39.37,"lng":-76.8,"year":1958,"city":"Randallstown","state":"MD","shape":"Triangle","duration":"240.0"},{"lat":41.32,"lng":-73.09,"year":1958,"city":"Derby (New Haven)","state":"CT","shape":"Disk","duration":"900.0"},{"lat":43.58,"lng":-70.32,"year":1958,"city":"Scarborough","state":"ME","shape":"Disk","duration":"600.0"},{"lat":47.61,"lng":-122.2,"year":1958,"city":"Bellevue","state":"WA","shape":"Light","duration":"1200.0"},{"lat":33.79,"lng":-83.71,"year":1958,"city":"Monroe","state":"GA","shape":"Oval","duration":"120.0"},{"lat":46.88,"lng":-96.79,"year":1958,"city":"Fargo","state":"ND","shape":"Disk","duration":"900.0"},{"lat":47.1,"lng":-97.22,"year":1958,"city":"Arthur","state":"ND","shape":"Undefined","duration":"900.0"},{"lat":38.48,"lng":-82.64,"year":1958,"city":"Ashland","state":"KY","shape":"Circle","duration":"45.0"},{"lat":42.1,"lng":-89.09,"year":1958,"city":"Davis Jct.","state":"IL","shape":"Fireball","duration":"300.0"},{"lat":44.94,"lng":-93.09,"year":1958,"city":"St. Paul","state":"MN","shape":"Other","duration":"2.0"},{"lat":44.35,"lng":-121.18,"year":1958,"city":"Terrebonne","state":"OR","shape":"Undefined","duration":"120.0"},{"lat":41.84,"lng":-87.82,"year":1958,"city":"Riverside","state":"IL","shape":"Light","duration":"600.0"},{"lat":41.87,"lng":-71.55,"year":1958,"city":"Greenville","state":"RI","shape":"Disk","duration":"600.0"},{"lat":43.04,"lng":-87.91,"year":1958,"city":"Milwaukee","state":"WI","shape":"Disk","duration":"10.0"},{"lat":37.65,"lng":-122.41,"year":1959,"city":"South San Francisco","state":"CA","shape":"Disk","duration":"120.0"},{"lat":25.77,"lng":-80.19,"year":1959,"city":"Miami","state":"FL","shape":"Sphere","duration":"2700.0"},{"lat":40.78,"lng":-74.6,"year":1959,"city":"Mendham","state":"NJ","shape":"Disk","duration":"300.0"},{"lat":40.63,"lng":-80.23,"year":1959,"city":"Baden","state":"PA","shape":"Cylinder","duration":"900.0"},{"lat":39.96,"lng":-83.0,"year":1959,"city":"Columbus","state":"OH","shape":"Light","duration":"180.0"},{"lat":37.98,"lng":-122.29,"year":1959,"city":"El Sobrante","state":"CA","shape":"Circle","duration":"120.0"},{"lat":42.04,"lng":-87.69,"year":1959,"city":"Evanston","state":"IL","shape":"Undefined","duration":"1200.0"},{"lat":39.16,"lng":-84.46,"year":1959,"city":"Cincinnati","state":"OH","shape":"Disk","duration":"3600.0"},{"lat":37.82,"lng":-88.03,"year":1959,"city":"Wabash River (On)","state":"IN","shape":"Circle","duration":"900.0"},{"lat":41.28,"lng":-73.03,"year":1959,"city":"Orange","state":"CT","shape":"Cylinder","duration":"3600.0"},{"lat":40.28,"lng":-84.16,"year":1959,"city":"Sidney","state":"OH","shape":"Light","duration":"300.0"},{"lat":40.2,"lng":-98.07,"year":1959,"city":"Nelson","state":"NE","shape":"Cigar","duration":"600.0"},{"lat":39.8,"lng":-105.09,"year":1959,"city":"Arvada","state":"CO","shape":"Circle","duration":"3600.0"},{"lat":41.92,"lng":-83.4,"year":1959,"city":"Monroe","state":"MI","shape":"Undefined","duration":"1800.0"},{"lat":46.87,"lng":-113.99,"year":1959,"city":"Missoula (Event At Superior)","state":"MT","shape":"Undefined","duration":"20.0"},{"lat":44.98,"lng":-93.26,"year":1959,"city":"Minneapolis","state":"MN","shape":"Other","duration":"30.0"},{"lat":37.29,"lng":-121.95,"year":1959,"city":"Campbell","state":"CA","shape":"Disk","duration":"720.0"},{"lat":44.98,"lng":-93.26,"year":1959,"city":"Minneapolis","state":"MN","shape":"Formation","duration":"7200.0"},{"lat":33.39,"lng":-110.79,"year":1959,"city":"Globe","state":"AZ","shape":"Rectangle","duration":"300.0"},{"lat":43.6,"lng":-88.28,"year":1959,"city":"Campbellsport","state":"WI","shape":"Circle","duration":"1200.0"},{"lat":40.71,"lng":-74.01,"year":1959,"city":"New York City (Bronx)","state":"NY","shape":"Oval","duration":"1200.0"},{"lat":33.45,"lng":-112.07,"year":1959,"city":"Phoenix","state":"AZ","shape":"Disk","duration":"60.0"},{"lat":36.15,"lng":-119.06,"year":1959,"city":"Strathmore","state":"CA","shape":"Disk","duration":"240.0"},{"lat":46.28,"lng":-122.91,"year":1959,"city":"Castle Rock","state":"WA","shape":"Cigar","duration":"30.0"},{"lat":44.78,"lng":-67.36,"year":1959,"city":"Gardner Lake (Extreme Northeastern  Us)","state":"ME","shape":"Oval","duration":"900.0"},{"lat":33.77,"lng":-118.19,"year":1959,"city":"Long Beach","state":"CA","shape":"Light","duration":"45.0"},{"lat":43.36,"lng":-71.94,"year":1959,"city":"Nort Sutton (Resort Area Near)","state":"NH","shape":"Undefined","duration":"15.0"},{"lat":38.29,"lng":-85.82,"year":1959,"city":"New Albany","state":"IN","shape":"Cigar","duration":"300.0"},{"lat":42.26,"lng":-71.8,"year":1959,"city":"Worcester","state":"MA","shape":"Other","duration":"180.0"},{"lat":40.9,"lng":-80.86,"year":1959,"city":"Salem","state":"OH","shape":"Disk","duration":"180.0"},{"lat":37.37,"lng":-85.58,"year":1959,"city":"Allendale","state":"KY","shape":"Light","duration":"300.0"},{"lat":32.73,"lng":-95.56,"year":1959,"city":"Golden","state":"TX","shape":"Disk","duration":"3.0"},{"lat":34.2,"lng":-118.54,"year":1959,"city":"Reseda","state":"CA","shape":"Disk","duration":"600.0"},{"lat":42.73,"lng":-73.69,"year":1959,"city":"Troy","state":"NY","shape":"Undefined","duration":"900.0"},{"lat":42.27,"lng":-74.3,"year":1959,"city":"Jewett","state":"NY","shape":"Light","duration":"1200.0"},{"lat":33.39,"lng":-104.52,"year":1959,"city":"Roswell","state":"NM","shape":"Undefined","duration":"2700.0"},{"lat":35.05,"lng":-118.17,"year":1959,"city":"Mohave","state":"CA","shape":"Light","duration":"120.0"},{"lat":37.71,"lng":-117.23,"year":1959,"city":"Goldfield","state":"NV","shape":"Light","duration":"60.0"},{"lat":39.76,"lng":-84.19,"year":1959,"city":"Dayton","state":"OH","shape":"Disk","duration":"900.0"},{"lat":39.47,"lng":-118.78,"year":1959,"city":"Fallon","state":"NV","shape":"Oval","duration":"7200.0"},{"lat":39.73,"lng":-90.23,"year":1959,"city":"Jacksonville","state":"IL","shape":"Undefined","duration":"60.0"},{"lat":48.05,"lng":-122.18,"year":1959,"city":"Marysville","state":"WA","shape":"Other","duration":"75.0"},{"lat":39.48,"lng":-80.31,"year":1959,"city":"Four States","state":"WV","shape":"Sphere","duration":"600.0"},{"lat":29.94,"lng":-82.11,"year":1959,"city":"Starke","state":"FL","shape":"Sphere","duration":"1800.0"},{"lat":40.42,"lng":-86.88,"year":1959,"city":"Lafayette","state":"IN","shape":"Circle","duration":"1800.0"},{"lat":34.05,"lng":-118.24,"year":1959,"city":"Los Angeles","state":"CA","shape":"Disk","duration":"600.0"},{"lat":35.13,"lng":-118.45,"year":1959,"city":"Tehachapi","state":"CA","shape":"Fireball","duration":"30.0"}]