[{"name": "Palo Verde Nuclear Generating Station", "type": "Power Plant", "city": "Tonopah", "state": "AZ", "lat": 33.389, "lng": -112.863, "year": 1986}, {"name": "Lawrence Livermore National Laboratory", "type": "Weapons Lab", "city": "Livermore", "state": "CA", "lat": 37.681, "lng": -121.706, "year": 1952}, {"name": "San Onofre Nuclear Generating Station", "type": "Power Plant", "city": "San Clemente", "state": "CA", "lat": 33.368, "lng": -117.556, "year": 1968}, {"name": "Diablo Canyon Power Plant", "type": "Power Plant", "city": "Avila Beach", "state": "CA", "lat": 35.211, "lng": -120.856, "year": 1985}, {"name": "Rocky Flats Plant", "type": "Weapons Production", "city": "Golden", "state": "CO", "lat": 39.888, "lng": -105.195, "year": 1952}, {"name": "Fort St. Vrain Nuclear Plant", "type": "Power Plant", "city": "Platteville", "state": "CO", "lat": 40.285, "lng": -104.875, "year": 1976}, {"name": "Crystal River Nuclear Plant", "type": "Power Plant", "city": "Crystal River", "state": "FL", "lat": 28.963, "lng": -82.698, "year": 1977}, {"name": "Vogtle Electric Generating Plant", "type": "Power Plant", "city": "Waynesboro", "state": "GA", "lat": 33.143, "lng": -81.764, "year": 1987}, {"name": "Idaho National Laboratory", "type": "Research Lab", "city": "Idaho Falls", "state": "ID", "lat": 43.514, "lng": -112.938, "year": 1949}, {"name": "Argonne National Laboratory", "type": "Research Lab", "city": "Lemont", "state": "IL", "lat": 41.713, "lng": -87.982, "year": 1946}, {"name": "Dresden Generating Station", "type": "Power Plant", "city": "Morris", "state": "IL", "lat": 41.389, "lng": -88.269, "year": 1960}, {"name": "Zion Nuclear Power Station", "type": "Power Plant", "city": "Zion", "state": "IL", "lat": 42.446, "lng": -87.801, "year": 1973}, {"name": "Paducah Gaseous Diffusion Plant", "type": "Fuel Enrichment", "city": "Paducah", "state": "KY", "lat": 37.074, "lng": -88.768, "year": 1952}, {"name": "Yankee Rowe Nuclear Power Station", "type": "Power Plant", "city": "Rowe", "state": "MA", "lat": 42.725, "lng": -72.93, "year": 1961}, {"name": "Maine Yankee", "type": "Power Plant", "city": "Wiscasset", "state": "ME", "lat": 43.96, "lng": -69.694, "year": 1972}, {"name": "Big Rock Point Nuclear Plant", "type": "Power Plant", "city": "Charlevoix", "state": "MI", "lat": 45.358, "lng": -85.193, "year": 1962}, {"name": "Los Alamos National Laboratory", "type": "Weapons Lab", "city": "Los Alamos", "state": "NM", "lat": 35.88, "lng": -106.303, "year": 1943}, {"name": "Sandia National Laboratories", "type": "Weapons Lab", "city": "Albuquerque", "state": "NM", "lat": 35.05, "lng": -106.54, "year": 1949}, {"name": "Waste Isolation Pilot Plant (WIPP)", "type": "Waste Storage", "city": "Carlsbad", "state": "NM", "lat": 32.392, "lng": -103.793, "year": 1999}, {"name": "Nevada National Security Site", "type": "Weapons Testing", "city": "Las Vegas", "state": "NV", "lat": 37.116, "lng": -116.05, "year": 1951}, {"name": "Brookhaven National Laboratory", "type": "Research Lab", "city": "Upton", "state": "NY", "lat": 40.869, "lng": -72.88, "year": 1947}, {"name": "Indian Point Energy Center", "type": "Power Plant", "city": "Buchanan", "state": "NY", "lat": 41.269, "lng": -73.952, "year": 1962}, {"name": "West Valley Demonstration Project", "type": "Waste Processing", "city": "West Valley", "state": "NY", "lat": 42.426, "lng": -78.388, "year": 1980}, {"name": "Portsmouth Gaseous Diffusion Plant", "type": "Fuel Enrichment", "city": "Piketon", "state": "OH", "lat": 39.002, "lng": -82.993, "year": 1954}, {"name": "Shippingport Atomic Power Station", "type": "Power Plant", "city": "Shippingport", "state": "PA", "lat": 40.623, "lng": -80.437, "year": 1957}, {"name": "Peach Bottom Atomic Power Station", "type": "Power Plant", "city": "York Haven", "state": "PA", "lat": 39.76, "lng": -76.271, "year": 1967}, {"name": "Three Mile Island", "type": "Power Plant", "city": "Middletown", "state": "PA", "lat": 40.153, "lng": -76.724, "year": 1974}, {"name": "Savannah River Site", "type": "Weapons Production/Waste", "city": "Aiken", "state": "SC", "lat": 33.25, "lng": -81.7, "year": 1950}, {"name": "Oak Ridge National Laboratory", "type": "Research Lab", "city": "Oak Ridge", "state": "TN", "lat": 35.931, "lng": -84.31, "year": 1943}, {"name": "K-25 Site (Oak Ridge)", "type": "Fuel Enrichment", "city": "Oak Ridge", "state": "TN", "lat": 35.989, "lng": -84.267, "year": 1945}, {"name": "Pantex Plant", "type": "Weapons Assembly", "city": "Amarillo", "state": "TX", "lat": 35.315, "lng": -101.559, "year": 1951}, {"name": "Hanford Site", "type": "Weapons Production/Waste", "city": "Richland", "state": "WA", "lat": 46.55, "lng": -119.55, "year": 1943}, {"name": "Columbia Generating Station", "type": "Power Plant", "city": "Richland", "state": "WA", "lat": 46.471, "lng": -119.333, "year": 1984}, {"name": "Kewaunee Power Station", "type": "Power Plant", "city": "Kewaunee", "state": "WI", "lat": 44.343, "lng": -87.536, "year": 1974}]